{"version": 0.6, "generator": "Overpass API 0.7.62.8 e802775f", "osm3s": {"timestamp_osm_base": "2025-08-27T17:27:15Z", "copyright": "The data included in this document is from www.openstreetmap.org. The data is made available under ODbL."}, "elements": [{"type": "node", "id": 30030194, "lat": -1.2961085, "lon": 36.8026495}, {"type": "node", "id": 275554473, "lat": -1.2637747, "lon": 36.8119684, "tags": {"amenity": "hospital", "healthcare": "hospital", "name": "M. P. Shah Hospital"}}, {"type": "node", "id": 277574278, "lat": -1.2609325, "lon": 36.8226904}, {"type": "node", "id": 277574279, "lat": -1.2611581, "lon": 36.8238324}, {"type": "node", "id": 277574280, "lat": -1.2614779, "lon": 36.824424}, {"type": "node", "id": 277574282, "lat": -1.2614606, "lon": 36.8245643}, {"type": "node", "id": 277574283, "lat": -1.2614884, "lon": 36.8247026}, {"type": "node", "id": 277574285, "lat": -1.2615989, "lon": 36.8247794}, {"type": "node", "id": 277574286, "lat": -1.2616392, "lon": 36.8248514}, {"type": "node", "id": 277574287, "lat": -1.261934, "lon": 36.8254719}, {"type": "node", "id": 277574288, "lat": -1.262803, "lon": 36.8250502}, {"type": "node", "id": 277574289, "lat": -1.2616795, "lon": 36.8222284}, {"type": "node", "id": 295338387, "lat": -1.2322785, "lon": 36.814427}, {"type": "node", "id": 295350932, "lat": -1.2321853, "lon": 36.8143647}, {"type": "node", "id": 295350933, "lat": -1.2325918, "lon": 36.8139586}, {"type": "node", "id": 310202077, "lat": -1.23237, "lon": 36.8140884}, {"type": "node", "id": 310202288, "lat": -1.2324654, "lon": 36.8141477}, {"type": "node", "id": 478550544, "lat": -1.3083002, "lon": 36.8033712}, {"type": "node", "id": 480762572, "lat": -1.2989386, "lon": 36.7818292}, {"type": "node", "id": 494148940, "lat": -1.259824, "lon": 36.7774131, "tags": {"addr:city": "Nairobi", "addr:street": "James Gichuru Road", "amenity": "pharmacy", "name": "A B C Pharmacy"}}, {"type": "node", "id": 521103442, "lat": -1.3104592, "lon": 36.8046369}, {"type": "node", "id": 579612059, "lat": -1.2322213, "lon": 36.8143888}, {"type": "node", "id": 612004553, "lat": -1.3144232, "lon": 36.7827122, "tags": {"amenity": "pharmacy", "contact:phone": "0714201192", "dispensing": "yes", "health_facility:exam_room": "yes", "health_facility:patients_per_day": "10", "health_facility:referals": "KNH", "health_facility:type": "chemist_dispensing", "healthcare": "pharmacy", "medical_service:dental_services": "yes", "medical_service:ear_nose_throat": "yes", "medical_service:general_medical_services": "yes", "medical_service:malaria": "yes", "medical_service:minor_surgery": "yes", "medical_service:outpatient": "yes", "medical_staff:clinical_officer": "1", "medical_staff:lab_tech": "1", "medical_staff:nurse": "1", "medical_staff:pharmacist": "2", "name": "lakaside chemist", "opening_hours": "Mo-Fr 07:30-20:00", "operational_status": "operational", "operational_status:electricity": "often", "operator:type": "private"}}, {"type": "node", "id": 612004989, "lat": -1.3106044, "lon": 36.7923902, "tags": {"amenity": "pharmacy", "check_date": "2023-04-01", "dispensing": "yes", "health_facility:type": "chemist_dispensing", "healthcare": "pharmacy", "medical_service:condom_distribution": "yes", "medical_staff:pharmacist": "1", "name": "community chemist", "opening_hours": "07:30-20:00", "operational_status:electricity": "sometimes", "operator:type": "private"}}, {"type": "node", "id": 612005346, "lat": -1.3113493, "lon": 36.7954541}, {"type": "node", "id": 612005347, "lat": -1.311422, "lon": 36.7955709}, {"type": "node", "id": 612005349, "lat": -1.3110609, "lon": 36.7956337}, {"type": "node", "id": 612005367, "lat": -1.3105288, "lon": 36.7946936}, {"type": "node", "id": 612005368, "lat": -1.3105771, "lon": 36.7947886}, {"type": "node", "id": 612005374, "lat": -1.3104484, "lon": 36.7946852}, {"type": "node", "id": 612005375, "lat": -1.3104683, "lon": 36.7947244}, {"type": "node", "id": 612005377, "lat": -1.3104377, "lon": 36.7948595}, {"type": "node", "id": 612006973, "lat": -1.3117701, "lon": 36.7927883, "tags": {"amenity": "pharmacy", "dispensing": "no", "health_facility:type": "chemist_over_the_counter", "healthcare": "pharmacy", "name": "Mwangaza Chemist", "opening_hours": "08:00-21:00"}}, {"type": "node", "id": 612007120, "lat": -1.309689, "lon": 36.7868134, "tags": {"amenity": "pharmacy", "check_date": "2023-05-11", "contact:phone": "0720570472", "dispensing": "no", "health_facility:referals": "KNH", "health_facility:type": "chemist_over_the_counter", "healthcare": "pharmacy", "name": "Alshariff chemist", "opening_hours": "06:30-21:30", "operational_status": "operational", "operational_status:electricity": "often", "operator:type": "private"}}, {"type": "node", "id": 612007257, "lat": -1.3140282, "lon": 36.7839335}, {"type": "node", "id": 612007438, "lat": -1.3078684, "lon": 36.7860504, "tags": {"amenity": "hospital", "check_date": "2023-04-15", "healthcare": "hospital", "name": "Upendo Vision Clinic"}}, {"type": "node", "id": 612007453, "lat": -1.3071984, "lon": 36.7863291, "tags": {"amenity": "hospital", "check_date": "2023-04-12", "healthcare": "hospital", "name": "New Makina Clinic"}}, {"type": "node", "id": 612007454, "lat": -1.3069635, "lon": 36.7870738, "tags": {"amenity": "pharmacy", "check_date": "2023-04-25", "dispensing": "yes", "health_facility:type": "chemist_dispensing", "healthcare": "pharmacy", "name": "Amanda Chemist"}}, {"type": "node", "id": 612007456, "lat": -1.3072303, "lon": 36.788823, "tags": {"amenity": "hospital", "check_date": "2023-04-12", "healthcare": "hospital", "name": "St Augustus Medical Clinic"}}, {"type": "node", "id": 612007539, "lat": -1.3179274, "lon": 36.7782341, "tags": {"amenity": "hospital", "check_date": "2023-05-12", "contact:phone": "0202724881", "dispensing": "yes", "health_facility:exam_room": "yes", "health_facility:patients_per_day": "varies", "health_facility:referals": "Mbagathi District Hospital,St Mary's Mission Hospital,KNH", "health_facility:type": "medical_clinic", "healthcare": "hospital", "media:video_device_number": "006", "media:video_number": "1-10\\19", "medical_service:antenatal_care": "yes", "medical_service:disease_support_groups": "HIV/AIDS", "medical_service:family_planning": "yes", "medical_service:growth_and_nutritional_support": "yes", "medical_service:home_based_care": "yes", "medical_service:immunizations": "yes", "medical_service:outpatient": "yes", "medical_service:pregnancy_test": "yes", "medical_service:psychosocial_support_counselling": "yes", "medical_service:sexually_transmitted_infections_management": "yes", "medical_service:youth_friendly_services": "yes", "medical_staff:medical_officer": "1", "medical_staff:nurse": "4", "medical_staff:pharmacist": "2", "name": "Wema Clinic", "opening_hours": "08:00-21:00", "operational_status": "operational", "operational_status:electricity": "sometimes", "operator:type": "private"}}, {"type": "node", "id": 612007693, "lat": -1.3103694, "lon": 36.7947254}, {"type": "node", "id": 612007778, "lat": -1.3117185, "lon": 36.7991031, "tags": {"amenity": "hospital", "check_date": "2023-05-02", "contact:email": "saolamedcentre@yahoo.com", "contact:phone": "020-2731464", "health_facility:exam_room": "yes", "health_facility:patients_per_day": "100", "health_facility:referals": "IDH,KNH", "health_facility:type": "medical_clinic", "healthcare": "hospital", "medical_service:antenatal_care": "yes", "medical_service:antiretroviral_therapy": "yes", "medical_service:circumcision": "yes", "medical_service:condom_distribution": "yes", "medical_service:family_planning": "yes", "medical_service:general_medical_services": "yes", "medical_service:growth_and_nutritional_support": "yes", "medical_service:home_based_care": "yes", "medical_service:immunizations": "yes", "medical_service:integrated_management_of_childhood_illness": "yes", "medical_service:malaria": "yes", "medical_service:outpatient": "yes", "medical_service:pmtct": "yes", "medical_service:pregnancy_test": "yes", "medical_service:sexually_transmitted_infections_management": "yes", "medical_service:tb_labs": "yes", "medical_service:tb_treatment": "yes", "medical_service:vct_hiv_counselling_test": "yes", "medical_service:youth_friendly_services": "yes", "medical_staff:clinical_officer": "0", "medical_staff:community_pharmacist": "0", "medical_staff:counsellor": "2", "medical_staff:general_practitioner": "3", "medical_staff:lab_tech": "1", "medical_staff:medical_officer": "0", "medical_staff:midwife": "4", "medical_staff:nurse": "4", "medical_staff:other": "0", "medical_staff:pharm_tech": "0", "medical_staff:pharmacist": "2", "name": "Saola Health Clinic", "opening_hours": "24/7", "operational_status": "operational", "operational_status:electricity": "always", "operator:type": "private"}}, {"type": "node", "id": 612007825, "lat": -1.3135143, "lon": 36.7894171}, {"type": "node", "id": 612008350, "lat": -1.315, "lon": 36.7859881, "tags": {"amenity": "pharmacy", "check_date": "2023-05-02", "dispensing": "no", "health_facility:referals": "KNH", "health_facility:type": "chemist_over_the_counter", "healthcare": "pharmacy", "medical_staff:clinical_officer": "1", "name": "Nafuu chemist", "opening_hours": "Mo-Fr 09:30-20:00", "operational_status:electricity": "often"}}, {"type": "node", "id": 612008410, "lat": -1.3096893, "lon": 36.7859966, "tags": {"amenity": "pharmacy", "contact:phone": "0728866711", "dispensing": "yes", "health_facility:type": "chemist_dispensing", "healthcare": "pharmacy", "name": "Raisi chemist", "opening_hours": "08:00-21:30", "operational_status": "operational", "operational_status:electricity": "often", "operator:type": "private"}}, {"type": "node", "id": 612008667, "lat": -1.3079831, "lon": 36.7892032, "tags": {"amenity": "hospital", "check_date": "2023-04-15", "contact:email": "kibera@mariestopes.or.ke", "contact:phone": "0721483707", "health_facility:exam_room": "yes", "health_facility:patients_per_day": "above 10", "health_facility:referals": "Marie stopes Eastliegh", "health_facility:type": "medical_clinic", "healthcare": "hospital", "medical_service:antenatal_care": "yes", "medical_service:circumcision": "yes", "medical_service:condom_distribution": "yes", "medical_service:family_planning": "yes", "medical_service:malaria": "yes", "medical_service:other": "pregnancy crisis control and gynaecologist", "medical_service:outpatient": "yes", "medical_service:pmtct": "no", "medical_service:pregnancy_test": "yes", "medical_service:psychosocial_support_counselling": "yes", "medical_service:youth_friendly_services": "no", "medical_staff:clinical_officer": "1", "medical_staff:nurse": "1", "medical_staff:other": "have 2 assistants", "name": "Marie Stopes Clinic", "opening_hours": "Mo-Fr 08:00-18:00, Sa 08:00-13:00", "operational_status": "operational", "operational_status:electricity": "often", "operator:type": "ngo_national"}}, {"type": "node", "id": 612008688, "lat": -1.3118057, "lon": 36.7924839, "tags": {"amenity": "pharmacy", "check_date": "2023-04-12", "dispensing": "yes", "health_facility:type": "chemist_dispensing", "healthcare": "pharmacy", "name": "Rose Pharmacy", "opening_hours": "08:00-22:00"}}, {"type": "node", "id": 612008709, "lat": -1.31523, "lon": 36.8028346, "tags": {"amenity": "hospital", "check_date": "2023-03-27", "health_facility:type": "medical_clinic", "healthcare": "hospital", "medical_service:dental_services": "yes", "medical_service:ear_nose_throat": "yes", "medical_service:general_medical_services": "yes", "medical_service:malaria": "yes", "medical_service:minor_surgery": "yes", "medical_service:outpatient": "yes", "medical_staff:community_pharmacist": "1", "medical_staff:nurse": "1", "name": "Rail Side Clinic", "opening_hours": "Mo-Fr 08:00-20:00", "operational_status": "operational", "operational_status:electricity": "always", "operator:type": "private"}}, {"type": "node", "id": 612008803, "lat": -1.3144838, "lon": 36.7826673, "tags": {"amenity": "pharmacy", "check_date": "2023-05-02", "contact:phone": "0114201192/ 072160499", "dispensing": "yes", "health_facility:exam_room": "yes", "health_facility:referals": "KNH,Mbagathi", "health_facility:type": "medical_clinic", "healthcare": "pharmacy", "medical_service:family_planning": "yes", "medical_service:outpatient": "yes", "medical_service:sexually_transmitted_infections_management": "yes", "medical_staff:clinical_officer": "1", "medical_staff:lab_tech": "1", "medical_staff:nurse": "1", "medical_staff:pharmacist": "2", "name": "Lake side clinic", "opening_hours": "07:00-20:30", "operational_status": "operational"}}, {"type": "node", "id": 612008876, "lat": -1.3135619, "lon": 36.7774467, "tags": {"amenity": "pharmacy", "dispensing": "yes", "health_facility:referals": "SENYE, ST. MARYS, USHIRIKA", "health_facility:type": "chemist_dispensing", "healthcare": "pharmacy", "name": "Elmac Chemist", "opening_hours": "09:00-21:00", "operational_status": "operational", "operational_status:electricity": "sometimes", "operator": "Alfred shisungu", "operator:type": "private"}}, {"type": "node", "id": 612008905, "lat": -1.3144691, "lon": 36.7903394, "tags": {"amenity": "pharmacy", "check_date": "2023-04-01", "dispensing": "yes", "health_facility:type": "chemist_dispensing", "healthcare": "pharmacy", "name": "Loving Hearts Dispensary"}}, {"type": "node", "id": 612008941, "lat": -1.3071676, "lon": 36.7880389}, {"type": "node", "id": 612008945, "lat": -1.3129475, "lon": 36.7949758, "tags": {"amenity": "pharmacy", "check_date": "2023-04-15", "health_facility:type": "medical_clinic", "healthcare": "pharmacy", "name": "Bedan Clinic", "operational_status": "operational", "operational_status:electricity": "always", "operator:type": "private"}}, {"type": "node", "id": 612008958, "lat": -1.3119244, "lon": 36.7938832, "tags": {"amenity": "pharmacy", "check_date": "2023-05-08", "dispensing": "yes", "health_facility:referals": "St Mary's hospital", "health_facility:type": "chemist_dispensing", "healthcare": "pharmacy", "name": "St. Edith Clinic", "operational_status": "operational", "operational_status:electricity": "always", "operator:type": "private"}}, {"type": "node", "id": 612009048, "lat": -1.3178475, "lon": 36.7992748, "tags": {"amenity": "pharmacy", "check_date": "2023-03-27", "dispensing": "yes", "health_facility:patients_per_day": "20", "health_facility:type": "chemist_dispensing", "healthcare": "pharmacy", "medical_service:condom_distribution": "yes", "medical_service:family_planning": "yes", "medical_service:outpatient": "yes", "medical_service:pregnancy_test": "yes", "medical_service:sexually_transmitted_infections_management": "yes", "medical_staff:clinical_officer": "1", "medical_staff:lab_tech": "1", "medical_staff:pharmacist": "1", "name": "Silanga ACK Emmanuel Clinic and Lab", "opening_hours": "Mo-Sa 08:30-16:00", "operational_status": "operational", "operational_status:electricity": "sometimes", "operator:description": "ACK Church", "operator:type": "faith_based_organization"}}, {"type": "node", "id": 612009072, "lat": -1.3108588, "lon": 36.7758463, "tags": {"amenity": "pharmacy", "check_date": "2023-05-12", "dispensing": "no", "health_facility:type": "chemist_over_the_counter", "healthcare": "pharmacy", "name": "Lee-Med Chemist"}}, {"type": "node", "id": 612009096, "lat": -1.314752, "lon": 36.7841913, "tags": {"amenity": "pharmacy", "check_date": "2023-05-02", "contact:phone": "0723226629", "dispensing": "yes", "health_facility:referals": "KNH", "health_facility:type": "chemist_dispensing", "healthcare": "pharmacy", "medical_staff:pharmacist": "2", "name": "Mizima Chemist", "opening_hours": "08:00-20:00", "operational_status": "operational", "operational_status:electricity": "often", "operator:type": "private", "shop": "electronics"}}, {"type": "node", "id": 612009104, "lat": -1.3132148, "lon": 36.7996396}, {"type": "node", "id": 612009126, "lat": -1.3148203, "lon": 36.8019738}, {"type": "node", "id": 612009233, "lat": -1.309082, "lon": 36.7903898, "tags": {"amenity": "pharmacy", "check_date": "2023-04-03", "dispensing": "no", "health_facility:type": "chemist_over_the_counter", "healthcare": "pharmacy", "name": "Goodwill Chemist", "opening_hours": "Mo-Fr 08:00-20:00", "operational_status": "operational", "operational_status:electricity": "always", "operator:type": "private"}}, {"type": "node", "id": 612009235, "lat": -1.3075107, "lon": 36.7889224, "tags": {"amenity": "pharmacy", "check_date": "2023-05-11", "dispensing": "yes", "health_facility:patients_per_day": "15", "health_facility:type": "chemist_dispensing", "healthcare": "pharmacy", "name": "Chemist", "opening_hours": "Mo-Fr 08:30-20:00", "operational_status": "operational", "operational_status:electricity": "always", "operator:type": "private"}}, {"type": "node", "id": 612009265, "lat": -1.3065921, "lon": 36.7834906, "tags": {"amenity": "hospital", "check_date": "2023-05-02", "health_facility:referals": "KNH", "health_facility:type": "medical_clinic", "healthcare": "hospital", "medical_service:family_planning": "yes", "medical_service:general_medical_services": "yes", "medical_service:malaria": "yes", "medical_service:minor_surgery": "yes", "medical_service:outpatient": "yes", "medical_service:pregnancy_test": "yes", "medical_service:psychosocial_support_counselling": "yes", "medical_staff:nurse": "2", "name": "Mareba Medical Clinic", "opening_hours": "08:00-20:00", "operational_status": "operational", "operational_status:electricity": "sometimes", "operator:type": "private"}}, {"type": "node", "id": 612009390, "lat": -1.3143199, "lon": 36.7824399, "tags": {"amenity": "pharmacy", "check_date": "2023-05-02", "healthcare": "pharmacy", "name": "Kibera Family Drugs and Medication Information Centre", "service_type": "pharmacy"}}, {"type": "node", "id": 612009572, "lat": -1.3155743, "lon": 36.7788873}, {"type": "node", "id": 612009579, "lat": -1.3144429, "lon": 36.7816913}, {"type": "node", "id": 612009706, "lat": -1.3077136, "lon": 36.7861039, "tags": {"amenity": "pharmacy", "check_date": "2023-04-12", "contact:phone": "0728134203", "health_facility:referals": "Kawangware Herbal", "health_facility:type": "herbalist", "healthcare": "pharmacy", "medical_service:dental_services": "yes", "medical_service:ear_nose_throat": "yes", "medical_service:family_planning": "yes", "medical_service:general_medical_services": "yes", "medical_service:malaria": "yes", "medical_service:sexually_transmitted_infections_management": "yes", "medical_service:tb_diagnosis": "yes", "name": "Herbal Chemist", "opening_hours": "07:30-19:00", "operational_status": "operational", "operational_status:electricity": "often", "operator:type": "private", "shop": "chemist"}}, {"type": "node", "id": 612010343, "lat": -1.3147676, "lon": 36.7842819, "tags": {"amenity": "pharmacy", "contact:phone": "0723226629", "dispensing": "yes", "health_facility:referals": "KNH", "health_facility:type": "chemist_dispensing", "healthcare": "pharmacy", "medical_staff:pharmacist": "1", "name": "Mzima Chemist", "opening_hours": "Mo-Fr 08:00-20:00", "operational_status:electricity": "often", "operator:type": "private"}}, {"type": "node", "id": 612010735, "lat": -1.3117524, "lon": 36.7926652, "tags": {"amenity": "pharmacy", "dispensing": "yes", "health_facility:type": "chemist_dispensing", "healthcare": "pharmacy", "name": "Esther Pharmacy", "opening_hours": "08:00-22:00"}}, {"type": "node", "id": 612011308, "lat": -1.3131964, "lon": 36.7973847, "tags": {"amenity": "pharmacy", "check_date": "2023-04-15", "health_facility:patients_per_day": "12", "health_facility:referals": "their other branch in Kawangware", "health_facility:type": "herbalist", "healthcare": "pharmacy", "medical_service:general_medical_services": "yes", "medical_service:malaria": "yes", "medical_staff:pharm_tech": "1", "name": "Cahm Herbal and Nutrition Clinic", "opening_hours": "Mo-Fr 07:00-21:00", "operational_status": "operational", "operational_status:electricity": "always", "operator:type": "private"}}, {"type": "node", "id": 612011373, "lat": -1.311816, "lon": 36.7979024, "tags": {"amenity": "pharmacy", "check_date": "2023-03-20", "health_facility:type": "medical_clinic", "healthcare": "pharmacy", "name": "Eagle's Family Clinic", "opening_hours": "Mo-Fr 08:30-20:00"}}, {"type": "node", "id": 612011505, "lat": -1.3169664, "lon": 36.7966099, "tags": {"amenity": "pharmacy", "check_date": "2023-03-20", "cuisine": "regional", "dispensing": "yes", "health_facility:type": "chemist_dispensing", "healthcare": "pharmacy", "name": "Carol Medical Clinic", "opening_hours": "Mo-Su 07:00-21:00", "operational_status": "operational", "operational_status:electricity": "sometimes", "operator:type": "private"}}, {"type": "node", "id": 612602247, "lat": -1.3109074, "lon": 36.7831054}, {"type": "node", "id": 612602248, "lat": -1.3107492, "lon": 36.7831091}, {"type": "node", "id": 612602249, "lat": -1.3107585, "lon": 36.7833503}, {"type": "node", "id": 613842933, "lat": -1.3141268, "lon": 36.7838819}, {"type": "node", "id": 613842935, "lat": -1.3142065, "lon": 36.7840146}, {"type": "node", "id": 613842938, "lat": -1.3142133, "lon": 36.7840703}, {"type": "node", "id": 613842940, "lat": -1.3141482, "lon": 36.7841065}, {"type": "node", "id": 613842942, "lat": -1.3141087, "lon": 36.7840776}, {"type": "node", "id": 671166105, "lat": -1.3111336, "lon": 36.7957505}, {"type": "node", "id": 696555670, "lat": -1.3086289, "lon": 36.7730892, "tags": {"amenity": "pharmacy", "check_date": "2023-04-19", "dispensing": "yes", "health_facility:description": "Exam Room,Over the Counter and Prescription", "health_facility:exam_room": "yes", "healthcare": "pharmacy", "name": "parkside dispensing chemist", "operational_status": "operational", "operator:type": "private"}}, {"type": "node", "id": 696610501, "lat": -1.3146552, "lon": 36.7763522, "tags": {"amenity": "pharmacy", "contact:phone": "0720343637", "dispensing": "no", "health_facility:type": "chemist_over_the_counter", "healthcare": "pharmacy", "medical_service:condom_distribution": "yes", "medical_service:family_planning": "yes", "medical_service:immunizations": "yes", "medical_service:malaria": "yes", "medical_service:outpatient": "yes", "medical_service:pregnancy_test": "yes", "medical_staff:pharmacist": "1", "name": "Hope Chemist", "opening_hours": "10:00-19:00", "operational_status": "operational", "operational_status:electricity": "sometimes", "operator:type": "private"}}, {"type": "node", "id": 696610502, "lat": -1.315484, "lon": 36.775462, "tags": {"amenity": "pharmacy", "check_date": "2023-05-02", "contact:phone": "0722621371", "dispensing": "no", "health_facility:referals": "Otiende Health Center", "health_facility:type": "chemist_over_the_counter", "healthcare": "pharmacy", "medical_service:condom_distribution": "yes", "medical_service:family_planning": "yes", "medical_service:malaria": "yes", "medical_service:outpatient": "yes", "medical_service:pregnancy_test": "yes", "name": "Mini Prime Chemist", "opening_hours": "07:30-22:00", "operational_status": "operational", "operational_status:electricity": "sometimes", "operator:type": "private"}}, {"type": "node", "id": 696655680, "lat": -1.3130303, "lon": 36.7775527, "tags": {"amenity": "pharmacy", "dispensing": "yes", "health_facility:referals": "KNH,Mbagathi", "health_facility:type": "chemist_dispensing", "healthcare": "pharmacy", "medical_service:circumcision": "no", "medical_service:dental_services": "yes", "medical_service:family_planning": "yes", "medical_service:gender_based_violence_services": "yes", "medical_service:health_insurance": "yes", "medical_service:malaria": "yes", "medical_service:palliative_care": "yes", "medical_service:pregnancy_test": "yes", "medical_service:psychosocial_support_counselling": "yes", "medical_staff:counsellor": "1", "medical_staff:nurse": "1", "medical_staff:pharmacist": "1", "name": "Neema", "opening_hours": "07:00-13:00", "operational_status": "operational", "operational_status:electricity": "sometimes", "operator:type": "private"}}, {"type": "node", "id": 696655689, "lat": -1.3130412, "lon": 36.7798683, "tags": {"amenity": "pharmacy", "contact:phone": "0720643121", "dispensing": "yes", "health_facility:referals": "MSF,KNH,Mbagathi", "health_facility:type": "chemist_dispensing", "healthcare": "pharmacy", "medical_staff:pharm_tech": "2", "name": "Ledos", "opening_hours": "08:00-21:00", "operational_status:electricity": "sometimes", "operator:type": "private"}}, {"type": "node", "id": 696655693, "lat": -1.3117037, "lon": 36.7773192, "tags": {"amenity": "pharmacy", "check_date": "2023-05-02", "dispensing": "yes", "health_facility:referals": "KNH", "health_facility:type": "chemist_dispensing", "healthcare": "pharmacy", "media:camera_device_number": "2", "media:camera_number": "6", "medical_staff:pharmacist": "1", "name": "Pollar pharm", "opening_hours": "08:00-21:00", "operational_status": "operational", "operational_status:electricity": "sometimes", "operator:type": "private"}}, {"type": "node", "id": 696655697, "lat": -1.3124115, "lon": 36.7781982, "tags": {"amenity": "pharmacy", "check_date": "2023-05-11", "dispensing": "yes", "health_facility:referals": "Mbagathi", "health_facility:type": "chemist_dispensing", "healthcare": "pharmacy", "mapillary": "2966047590291995", "media:camera_device_number": "2", "media:camera_number": "9", "medical_service:other": "Injections,Dresswounds", "medical_service:pregnancy_test": "yes", "medical_staff:community_pharmacist": "1", "medical_staff:nurse": "1", "name": "Nafuu Chemist", "opening_hours": "08:00-20:00", "operational_status": "operational", "operational_status:electricity": "sometimes", "operator:type": "private", "source": "survey", "survey:date": "2018-02-13"}}, {"type": "node", "id": 696655707, "lat": -1.3116403, "lon": 36.7782091, "tags": {"amenity": "pharmacy", "contact:phone": "0722716714", "fixme": "resurvey", "health_facility:referals": "General", "health_facility:type": "herbalist", "healthcare": "pharmacy", "mapillary": "238976544682265", "media:camera_device_number": "2", "media:camera_number": "7", "medical_staff:other": "2 attendance", "name": "Lazarus Herbal Solution", "opening_hours": "08:00-20:00", "operational_status": "operational", "operational_status:electricity": "sometimes", "operator:type": "private", "survey:date": "2018-02-13"}}, {"type": "node", "id": 696656807, "lat": -1.3163293, "lon": 36.7950543, "tags": {"amenity": "pharmacy", "check_date": "2023-04-01", "dispensing": "no", "health_facility:type": "chemist_over_the_counter", "healthcare": "pharmacy", "name": "Mid Rift Chemist"}}, {"type": "node", "id": 696656808, "lat": -1.3167834, "lon": 36.7955008, "tags": {"amenity": "pharmacy", "check_date": "2023-03-21", "contact:phone": "+254 725 345 867", "dispensing": "yes", "health_facility:exam_room": "yes", "health_facility:patients_per_day": "Average 30", "health_facility:referals": "Mbagathi District Hospital,KNH", "health_facility:type": "chemist_dispensing", "healthcare": "pharmacy", "name": "Silanga Pharmacy", "opening_hours": "Mo-Su 08:30-22:00", "operational_status": "operational", "operational_status:electricity": "sometimes", "operator:type": "private"}}, {"type": "node", "id": 696677343, "lat": -1.3129995, "lon": 36.7846303}, {"type": "node", "id": 696677345, "lat": -1.3131689, "lon": 36.7841793}, {"type": "node", "id": 696677374, "lat": -1.3133638, "lon": 36.785417, "tags": {"amenity": "pharmacy", "check_date": "2023-05-12", "dispensing": "no", "health_facility:exam_room": "yes", "health_facility:patients_per_day": "10 and above", "health_facility:referals": "KNH", "health_facility:type": "chemist_over_the_counter", "healthcare": "pharmacy", "medical_service:condom_distribution": "yes", "medical_service:family_planning": "yes", "medical_service:malaria": "yes", "medical_service:pregnancy_test": "yes", "medical_staff:pharmacist": "1", "name": "St Beeja Chemist", "opening_hours": "Mo-Fr 08:30-20:00", "operational_status": "operational", "operational_status:electricity": "always", "operator:type": "private"}}, {"type": "node", "id": 696677376, "lat": -1.3127699, "lon": 36.7892366, "tags": {"amenity": "pharmacy", "check_date": "2023-04-01", "dispensing": "yes", "health_facility:referals": "KNH", "health_facility:type": "chemist_dispensing", "healthcare": "pharmacy", "name": "Chemist", "operational_status": "operational", "operational_status:electricity": "sometimes", "operator:type": "private"}}, {"type": "node", "id": 696772525, "lat": -1.3167646, "lon": 36.7949559, "tags": {"amenity": "pharmacy", "check_date": "2023-03-27", "dispensing": "yes", "health_facility:exam_room": "no", "health_facility:patients_per_day": "Average 18", "health_facility:referals": "Mbagathi District Hospital,KNH", "health_facility:type": "chemist_dispensing", "healthcare": "pharmacy", "media:camera_device_number": "1", "media:camera_number": "2,3", "medical_service:condom_distribution": "yes", "medical_service:family_planning": "yes", "medical_service:gender_based_violence_services": "yes", "medical_service:outpatient": "yes", "medical_service:psychosocial_support_counselling": "yes", "medical_service:vct_hiv_counselling_test": "yes", "medical_staff:counsellor": "1", "medical_staff:nurse": "1", "medical_staff:pharmacist": "1", "name": "Organic Chemist", "opening_hours": "Mo-Su 08:30-22:00", "operational_status": "operational", "operational_status:electricity": "sometimes", "operator:type": "private"}}, {"type": "node", "id": 696864635, "lat": -1.3166149, "lon": 36.7952421}, {"type": "node", "id": 698467045, "lat": -1.3077532, "lon": 36.7828482, "tags": {"amenity": "pharmacy", "check_date": "2023-04-15", "contact:phone": "0720856603", "dispensing": "no", "health_facility:referals": "KNH,Mbagathi", "health_facility:type": "chemist_over_the_counter", "healthcare": "pharmacy", "name": "Beienish Chemist", "opening_hours": "08:00-20:30", "operational_status:electricity": "always", "operator:type": "private"}}, {"type": "node", "id": 698467048, "lat": -1.3085224, "lon": 36.7841332, "tags": {"amenity": "pharmacy", "check_date": "2023-04-12", "contact:phone": "0725248880", "dispensing": "no", "health_facility:referals": "Trans-chem", "health_facility:type": "chemist_over_the_counter", "healthcare": "pharmacy", "name": "Home Pharmacy", "opening_hours": "08:00-21:00", "operational_status": "operational", "operational_status:electricity": "always", "operator:type": "private"}}, {"type": "node", "id": 698467060, "lat": -1.3082133, "lon": 36.783799, "tags": {"amenity": "pharmacy", "check_date": "2023-04-12", "dispensing": "no", "health_facility:type": "chemist_over_the_counter", "healthcare": "pharmacy", "name": "Chemist", "opening_hours": "08:00-19:00", "operational_status": "operational", "operational_status:electricity": "sometimes", "operator:type": "private"}}, {"type": "node", "id": 698467073, "lat": -1.3100272, "lon": 36.7882765, "tags": {"amenity": "hospital", "check_date": "2023-04-05", "contact:email": "makinaclinics@hotmail.com", "contact:phone": "020-3871956/0722-825905", "health_facility:exam_room": "yes", "health_facility:patients_per_day": "20", "health_facility:referals": "KNH,Magqathi,St Marys", "health_facility:type": "medical_clinic", "healthcare": "hospital", "medical_service:antenatal_care": "yes", "medical_service:basic_emergency_obsteric_care": "yes", "medical_service:circumcision": "yes", "medical_service:condom_distribution": "yes", "medical_service:family_planning": "yes", "medical_service:general_medical_services": "yes", "medical_service:growth_and_nutritional_support": "yes", "medical_service:home_based_care": "yes", "medical_service:immunizations": "yes", "medical_service:integrated_management_of_childhood_illness": "yes", "medical_service:malaria": "yes", "medical_service:minor_surgery": "yes", "medical_service:outpatient": "yes", "medical_service:pmtct": "yes", "medical_service:pregnancy_test": "yes", "medical_service:prevention": "Tetanus,Malaria", "medical_service:psychosocial_support_counselling": "yes", "medical_service:sexually_transmitted_infections_management": "yes", "medical_service:tb_diagnosis": "yes", "medical_service:vct_hiv_counselling_test": "yes", "medical_service:youth_friendly_services": "yes", "medical_staff:clinical_officer": "1", "medical_staff:community_pharmacist": "0", "medical_staff:counsellor": "0", "medical_staff:general_practitioner": "0", "medical_staff:lab_tech": "1", "medical_staff:medical_officer": "0", "medical_staff:midwife": "0", "medical_staff:nurse": "2", "medical_staff:other": "0", "medical_staff:pharm_tech": "0", "medical_staff:pharmacist": "0", "name": "Makina Clinic", "opening_hours": "24/7", "operational_status": "operational", "operational_status:electricity": "always"}}, {"type": "node", "id": 698476596, "lat": -1.3075323, "lon": 36.7826819, "tags": {"amenity": "pharmacy", "contact:phone": "0721731621", "fixme": "name?", "health_facility:type": "herbalist", "healthcare": "pharmacy", "name": "Herberlist", "opening_hours": "05:00-21:00", "operational_status": "operational", "operational_status:electricity": "often", "operator:type": "private"}}, {"type": "node", "id": 698476716, "lat": -1.3076781, "lon": 36.7826336, "tags": {"amenity": "pharmacy", "check_date": "2023-04-15", "contact:phone": "0720345513", "dispensing": "no", "health_facility:referals": "Mbagathi", "health_facility:type": "chemist_over_the_counter", "healthcare": "pharmacy", "name": "Quick Pharmacy", "opening_hours": "08:00-21:00", "operational_status": "operational", "operational_status:electricity": "sometimes", "operator:type": "private"}}, {"type": "node", "id": 698476726, "lat": -1.3078314, "lon": 36.7831506, "tags": {"amenity": "pharmacy", "check_date": "2023-04-15", "contact:phone": "0735348029", "dispensing": "no", "health_facility:type": "chemist_over_the_counter", "healthcare": "pharmacy", "name": "Pona Chemist", "opening_hours": "08:00-21:00", "operational_status": "operational", "operational_status:electricity": "often", "operator:type": "private"}}, {"type": "node", "id": 698478562, "lat": -1.3085474, "lon": 36.7856507, "tags": {"amenity": "pharmacy", "check_date": "2023-04-17", "dispensing": "no", "health_facility:type": "chemist_over_the_counter", "healthcare": "pharmacy", "name": "Jamii Chemist", "opening_hours": "08:00-19:00", "operational_status:electricity": "often", "operator:type": "private"}}, {"type": "node", "id": 698525854, "lat": -1.3113121, "lon": 36.7874552, "tags": {"amenity": "pharmacy", "health_facility:patients_per_day": "20-30", "health_facility:referals": "MSF Belgium Kwa wanga", "health_facility:type": "herbalist", "healthcare": "pharmacy", "media:video_device_number": "8", "media:video_number": "21", "medical_service:dental_services": "yes", "medical_service:malaria": "yes", "medical_service:outpatient": "yes", "medical_staff:other": "Herbalist", "name": "Jaribu Herbs", "opening_hours": "09:00-18:00", "operational_status": "operational", "operational_status:electricity": "never", "operator:type": "private"}}, {"type": "node", "id": 698525856, "lat": -1.3114775, "lon": 36.7881186, "tags": {"amenity": "pharmacy", "check_date": "2023-05-11", "health_facility:patients_per_day": "10-20", "health_facility:type": "herbalist", "healthcare": "pharmacy", "medical_staff:other": "Herbalist", "name": "Herbalist", "opening_hours": "19:00-21:00", "operational_status": "operational", "operational_status:electricity": "never", "operator:type": "private"}}, {"type": "node", "id": 698541816, "lat": -1.3140416, "lon": 36.7916405}, {"type": "node", "id": 698541828, "lat": -1.3121943, "lon": 36.7923376, "tags": {"amenity": "pharmacy", "check_date": "2023-04-15", "dispensing": "no", "health_facility:exam_room": "yes", "health_facility:type": "chemist_over_the_counter", "healthcare": "pharmacy", "medical_service:circumcision": "no", "medical_service:condom_distribution": "no", "medical_service:dental_services": "no", "medical_service:ear_nose_throat": "no", "medical_service:family_planning": "no", "medical_service:general_medical_services": "no", "medical_service:malaria": "no", "medical_service:minor_surgery": "no", "medical_service:outpatient": "no", "medical_service:pregnancy_test": "no", "medical_service:vct_hiv_counselling_test": "no", "medical_staff:pharm_tech": "1", "name": "Community Chemist", "opening_hours": "07:30-20:00", "operational_status": "operational", "operational_status:electricity": "sometimes", "operator:type": "private"}}, {"type": "node", "id": 698541830, "lat": -1.3124734, "lon": 36.7924258, "tags": {"amenity": "pharmacy", "check_date": "2023-05-08", "dispensing": "no", "health_facility:exam_room": "yes", "health_facility:type": "chemist_over_the_counter", "healthcare": "pharmacy", "medical_staff:pharm_tech": "1", "name": "St Edith", "opening_hours": "07:30-20:00", "operational_status": "operational", "operational_status:electricity": "sometimes", "operator:type": "private"}}, {"type": "node", "id": 698541835, "lat": -1.3120224, "lon": 36.7923801, "tags": {"amenity": "hospital", "check_date": "2023-04-15", "contact:email": "frepalssnursinghome@yahoo.com", "contact:phone": "020574707 or 020561202", "health_facility:bed": "10", "health_facility:exam_room": "yes", "health_facility:referals": "st mary langata", "health_facility:type": "nursing_home_with_maternity", "healthcare": "hospital", "medical_service:antenatal_care": "yes", "medical_service:antiretroviral_therapy": "no", "medical_service:condom_distribution": "yes", "medical_service:family_planning": "yes", "medical_service:immunizations": "yes", "medical_service:inpatient": "yes", "medical_service:integrated_management_of_childhood_illness": "yes", "medical_service:outpatient": "yes", "medical_service:pmtct": "yes", "medical_service:psychosocial_support_counselling": "yes", "medical_service:vct_hiv_counselling_test": "yes", "medical_staff:counsellor": "1", "medical_staff:general_practitioner": "1", "medical_staff:medical_officer": "1", "medical_staff:nurse": "5", "medical_staff:pharm_tech": "1", "name": "Frepals Maternity", "opening_hours": "24/7", "operational_status": "operational", "operational_status:electricity": "always", "operator:type": "private"}}, {"type": "node", "id": 698541837, "lat": -1.312037, "lon": 36.7923911, "tags": {"amenity": "pharmacy", "check_date": "2023-04-15", "dispensing": "yes", "health_facility:exam_room": "yes", "health_facility:referals": "KNH", "health_facility:type": "chemist_dispensing", "healthcare": "pharmacy", "medical_service:circumcision": "no", "medical_service:condom_distribution": "yes", "medical_service:ear_nose_throat": "yes", "medical_service:general_medical_services": "yes", "medical_service:malaria": "yes", "medical_service:minor_surgery": "yes", "medical_service:outpatient": "yes", "medical_service:pregnancy_test": "yes", "medical_service:tb_diagnosis": "yes", "medical_service:tb_labs": "yes", "medical_staff:medical_officer": "1", "medical_staff:pharm_tech": "1", "name": "Meru Chemist", "opening_hours": "07:30-20:00", "operational_status": "operational", "operational_status:electricity": "sometimes", "operator:type": "private"}}, {"type": "node", "id": 698541840, "lat": -1.3119095, "lon": 36.7926738, "tags": {"amenity": "pharmacy", "check_date": "2023-04-15", "dispensing": "no", "health_facility:type": "chemist_over_the_counter", "healthcare": "pharmacy", "medical_staff:pharm_tech": "1", "name": "Jahoma Bay Chemist", "opening_hours": "07:30-20:00", "operational_status": "operational", "operational_status:electricity": "often", "operator:type": "private"}}, {"type": "node", "id": 698592301, "lat": -1.3087718, "lon": 36.7901495, "tags": {"amenity": "pharmacy", "check_date": "2023-05-02", "dispensing": "yes", "health_facility:exam_room": "yes", "health_facility:patients_per_day": "14", "health_facility:type": "chemist_dispensing", "healthcare": "pharmacy", "name": "Chemist", "opening_hours": "Mo-Fr 08:30-20:00", "operational_status": "operational", "operational_status:electricity": "often", "operator:type": "private"}}, {"type": "node", "id": 698592302, "lat": -1.3090739, "lon": 36.790384, "tags": {"amenity": "pharmacy", "check_date": "2023-04-03", "dispensing": "yes", "health_facility:exam_room": "yes", "health_facility:type": "chemist_dispensing", "healthcare": "pharmacy", "name": "Chemist", "opening_hours": "Mo-Fr 08:30-20:00", "operational_status": "operational", "operational_status:electricity": "often", "operator:type": "private"}}, {"type": "node", "id": 698592304, "lat": -1.3080445, "lon": 36.7894352, "tags": {"amenity": "pharmacy", "check_date": "2023-04-15", "dispensing": "no", "health_facility:exam_room": "yes", "health_facility:patients_per_day": "14", "health_facility:type": "chemist_over_the_counter", "healthcare": "pharmacy", "name": "Chemist", "opening_hours": "Mo-Fr 08:30-20:00", "operational_status": "operational", "operational_status:electricity": "always", "operator:type": "private"}}, {"type": "node", "id": 698592305, "lat": -1.314296, "lon": 36.7960183, "tags": {"amenity": "pharmacy", "dispensing": "yes", "health_facility:exam_room": "yes", "health_facility:patients_per_day": "16", "health_facility:type": "chemist_dispensing", "healthcare": "pharmacy", "name": "community", "opening_hours": "Mo-Fr 08:30-20:00", "operational_status": "operational", "operational_status:electricity": "always", "operator:type": "private"}}, {"type": "node", "id": 698592306, "lat": -1.3138445, "lon": 36.7964847, "tags": {"amenity": "hospital", "check_date": "2023-04-03", "health_facility:exam_room": "yes", "health_facility:patients_per_day": "20", "health_facility:referals": "IDH,KNH", "health_facility:type": "medical_clinic", "healthcare": "hospital", "medical_service:antenatal_care": "yes", "medical_service:circumcision": "yes", "medical_service:condom_distribution": "yes", "medical_service:ear_nose_throat": "yes", "medical_service:family_planning": "yes", "medical_service:general_medical_services": "yes", "medical_service:growth_and_nutritional_support": "yes", "medical_service:home_based_care": "yes", "medical_service:integrated_management_of_childhood_illness": "yes", "medical_service:malaria": "yes", "medical_service:minor_surgery": "yes", "medical_service:other": "also offer gynaecological service", "medical_service:outpatient": "yes", "medical_service:pregnancy_test": "yes", "medical_service:psychosocial_support_counselling": "yes", "medical_service:vct_hiv_counselling_test": "yes", "medical_staff:clinical_officer": "0", "medical_staff:community_pharmacist": "0", "medical_staff:counsellor": "1", "medical_staff:general_practitioner": "2", "medical_staff:lab_tech": "1", "medical_staff:medical_officer": "0", "medical_staff:midwife": "0", "medical_staff:nurse": "3", "medical_staff:pharm_tech": "0", "medical_staff:pharmacist": "1", "name": "Community Royal clinic", "opening_hours": "Mo-Fr 08:30-20:00", "operational_status": "operational", "operational_status:electricity": "always", "operator:type": "private"}}, {"type": "node", "id": 698592314, "lat": -1.3122271, "lon": 36.7977084, "tags": {"amenity": "pharmacy", "dispensing": "no", "health_facility:patients_per_day": "13", "health_facility:type": "chemist_over_the_counter", "healthcare": "pharmacy", "name": "Chemist", "opening_hours": "Mo-Fr 08:30-20:00", "operational_status": "operational", "operational_status:electricity": "always", "operator:type": "private"}}, {"type": "node", "id": 698592324, "lat": -1.3072492, "lon": 36.7888229, "tags": {"amenity": "hospital", "check_date": "2023-04-12", "contact:email": "stangelaschorg@yahoo.com", "contact:phone": "0720483302/ 0715391747", "health_facility:exam_room": "yes", "health_facility:patients_per_day": "15", "health_facility:referals": "KNH", "health_facility:type": "medical_clinic", "healthcare": "hospital", "medical_service:antenatal_care": "yes", "medical_service:circumcision": "yes", "medical_service:condom_distribution": "yes", "medical_service:family_planning": "yes", "medical_service:general_medical_services": "yes", "medical_service:immunizations": "yes", "medical_service:malaria": "yes", "medical_service:outpatient": "yes", "medical_service:pregnancy_test": "yes", "medical_service:psychosocial_support_counselling": "yes", "medical_service:vct_hiv_counselling_test": "yes", "medical_service:youth_friendly_services": "no", "medical_staff:clinical_officer": "1", "medical_staff:counsellor": "1", "medical_staff:nurse": "2", "name": "St.Angela Clinic", "opening_hours": "Mo-Fr", "operational_status": "operational", "operational_status:electricity": "sometimes", "operator:type": "ngo_cbo"}}, {"type": "node", "id": 698602287, "lat": -1.3121023, "lon": 36.7783046, "tags": {"amenity": "pharmacy", "dispensing": "yes", "fixme": "resurvey", "health_facility:referals": "Mbagathi,Pathocare", "health_facility:type": "chemist_dispensing", "healthcare": "pharmacy", "mapillary": "517785525892203", "media:camera_device_number": "2", "media:camera_number": "9", "medical_service:malaria": "yes", "medical_service:pregnancy_test": "yes", "medical_staff:pharmacist": "2", "name": "Balozi", "opening_hours": "07:00-13:00", "operational_status": "operational", "operational_status:electricity": "sometimes", "operator:type": "private", "survey:date": "2018-02-13"}}, {"type": "node", "id": 698602288, "lat": -1.3119434, "lon": 36.7783566, "tags": {"amenity": "pharmacy", "dispensing": "yes", "fixme": "resurvey", "health_facility:referals": "KHN", "health_facility:type": "chemist_dispensing", "healthcare": "pharmacy", "mapillary": "313388590227972", "medical_staff:pharmacist": "1", "name": "Amalasia", "opening_hours": "08:00-19:00", "operational_status": "operational", "operational_status:electricity": "sometimes", "operator:type": "private", "survey:date": "2018-02-13"}}, {"type": "node", "id": 698602290, "lat": -1.3124345, "lon": 36.7822737, "tags": {"amenity": "pharmacy", "dispensing": "yes", "health_facility:referals": "Ushirika Medica Center", "health_facility:type": "chemist_dispensing", "healthcare": "pharmacy", "medical_staff:pharmacist": "1", "name": "REMS", "opening_hours": "08:00-19:00", "operational_status": "operational", "operational_status:electricity": "never", "operator:type": "private"}}, {"type": "node", "id": 698602291, "lat": -1.3072052, "lon": 36.7825137, "tags": {"amenity": "hospital", "check_date": "2023-04-12", "fixme": "resurvey", "health_facility:exam_room": "yes", "health_facility:patients_per_day": "5-10", "health_facility:referals": "KNH", "health_facility:type": "medical_clinic", "healthcare": "hospital", "mapillary": "776961869689529", "medical_service:family_planning": "yes", "medical_service:general_medical_services": "yes", "medical_service:immunizations": "yes", "medical_service:malaria": "yes", "medical_service:other": "chemist", "medical_service:outpatient": "yes", "medical_service:pregnancy_test": "yes", "medical_staff:nurse": "2", "name": "Medical Clinic", "opening_hours": "Mo-Fr 07:00-19:00", "operational_status": "operational", "operational_status:electricity": "sometimes", "operator:type": "private", "survey:date": "2018-02-20"}}, {"type": "node", "id": 698602292, "lat": -1.3059372, "lon": 36.7875633, "tags": {"amenity": "pharmacy", "check_date": "2023-05-11", "health_facility:referals": "GENERAL", "health_facility:type": "herbalist", "healthcare": "pharmacy", "medical_staff:other": "One attendence", "name": "Kibera Herbalist", "opening_hours": "08:00-19:00", "operational_status:electricity": "never", "operator:type": "private"}}, {"type": "node", "id": 698602293, "lat": -1.3061601, "lon": 36.7880922}, {"type": "node", "id": 698629331, "lat": -1.3154417, "lon": 36.7790203, "tags": {"amenity": "pharmacy", "check_date": "2023-05-23", "contact:phone": "0710784540", "dispensing": "yes", "health_facility:type": "chemist_dispensing", "healthcare": "pharmacy", "medical_staff:pharm_tech": "1", "name": "Hiltop Chemist", "opening_hours": "09:00-22:00", "operational_status:electricity": "often", "operator:type": "private"}}, {"type": "node", "id": 698629339, "lat": -1.3153123, "lon": 36.7793682, "tags": {"amenity": "pharmacy", "check_date": "2023-05-23", "contact:phone": "0729497022", "dispensing": "no", "health_facility:referals": "KNH", "health_facility:type": "chemist_over_the_counter", "healthcare": "pharmacy", "name": "Blue Cross Community Chemist", "opening_hours": "Mo-Fr 08:00-10:00", "operational_status:electricity": "often", "operator:type": "private"}}, {"type": "node", "id": 698629343, "lat": -1.314895, "lon": 36.7847122, "tags": {"amenity": "pharmacy", "check_date": "2023-05-02", "contact:phone": "0725562384", "dispensing": "yes", "health_facility:referals": "Mbagathi,St Marys", "health_facility:type": "chemist_dispensing", "healthcare": "pharmacy", "medical_staff:nurse": "1", "name": "Nango Chemist", "opening_hours": "08:00-20:00", "operator:type": "private"}}, {"type": "node", "id": 701794585, "lat": -1.3121691, "lon": 36.7752627, "tags": {"amenity": "pharmacy", "dispensing": "no", "health_facility:description": "some prescription", "health_facility:type": "chemist_over_the_counter", "healthcare": "pharmacy", "medical_service:family_planning": "yes", "medical_service:home_based_care": "yes", "medical_service:palliative_care": "yes", "medical_service:pregnancy_test": "yes", "medical_service:youth_friendly_services": "yes", "medical_staff:community_pharmacist": "1", "name": "Jamii Chemist", "opening_hours": "08:00-21:30", "operational_status": "operational", "operational_status:electricity": "sometimes", "operator:type": "private"}}, {"type": "node", "id": 701794601, "lat": -1.3111346, "lon": 36.7750931, "tags": {"amenity": "pharmacy", "dispensing": "no", "health_facility:type": "chemist_over_the_counter", "healthcare": "pharmacy", "medical_service:family_planning": "yes", "medical_service:pregnancy_test": "yes", "medical_service:vct_hiv_counselling_test": "yes", "medical_staff:community_pharmacist": "1", "name": "Sisi Chemist", "opening_hours": "09:00-21:00", "operational_status": "operational", "operational_status:electricity": "always", "operator:type": "private"}}, {"type": "node", "id": 701794605, "lat": -1.3111319, "lon": 36.7756493, "tags": {"amenity": "pharmacy", "check_date": "2023-05-02", "dispensing": "no", "health_facility:type": "chemist_over_the_counter", "healthcare": "pharmacy", "medical_staff:community_pharmacist": "1", "name": "Ayany Chemist", "opening_hours": "08:00-17:30", "operational_status": "operational", "operational_status:electricity": "always", "operator:type": "private"}}, {"type": "node", "id": 701794608, "lat": -1.3112426, "lon": 36.7754287}, {"type": "node", "id": 701794614, "lat": -1.3111207, "lon": 36.776079, "tags": {"amenity": "pharmacy", "contact:phone": "0724567890", "dispensing": "no", "health_facility:type": "chemist_over_the_counter", "healthcare": "pharmacy", "medical_staff:community_pharmacist": "1", "name": "Terminus Chemist", "opening_hours": "08:00-17:30", "operational_status": "operational", "operational_status:electricity": "often", "operator:type": "private"}}, {"type": "node", "id": 701794619, "lat": -1.3105992, "lon": 36.7757249, "tags": {"amenity": "pharmacy", "check_date": "2023-05-12", "dispensing": "no", "health_facility:type": "chemist_over_the_counter", "healthcare": "pharmacy", "name": "Omweri Chemist", "opening_hours": "08:00-21:00", "operational_status": "operational", "operational_status:electricity": "always", "operator:type": "private"}}, {"type": "node", "id": 701794627, "lat": -1.3096087, "lon": 36.7732727, "tags": {"amenity": "pharmacy", "check_date": "2023-05-02", "dispensing": "no", "health_facility:type": "chemist_over_the_counter", "healthcare": "pharmacy", "mapillary": "912049662877045", "medical_service:family_planning": "yes", "medical_service:inpatient": "yes", "medical_service:pregnancy_test": "yes", "name": "Rahisi Pharmacy", "opening_hours": "10:00-22:00", "operational_status": "operational", "operational_status:electricity": "sometimes", "operator:type": "private", "source": "survey", "survey:date": "2018-02-13"}}, {"type": "node", "id": 701794632, "lat": -1.3101169, "lon": 36.7734887, "tags": {"amenity": "pharmacy", "check_date": "2023-05-23", "dispensing": "no", "health_facility:type": "chemist_over_the_counter", "healthcare": "pharmacy", "mapillary": "503115587798089", "medical_service:dental_services": "yes", "medical_service:general_medical_services": "yes", "medical_staff:community_pharmacist": "1", "name": "YU 42Chemist", "opening_hours": "09:00-22:00", "operational_status": "operational", "operational_status:electricity": "sometimes", "operator:type": "private", "source": "survey", "survey:date": "2018-02-13"}}, {"type": "node", "id": 701794655, "lat": -1.3085623, "lon": 36.7730551}, {"type": "node", "id": 701794672, "lat": -1.3099173, "lon": 36.7752242}, {"type": "node", "id": 701794691, "lat": -1.3108623, "lon": 36.7816908, "tags": {"amenity": "pharmacy", "check_date": "2023-05-04", "contact:phone": "0720423740", "dispensing": "no", "health_facility:type": "chemist_over_the_counter", "healthcare": "pharmacy", "medical_service:family_planning": "yes", "medical_service:pregnancy_test": "yes", "medical_staff:community_pharmacist": "1", "name": "Olive Chemist", "opening_hours": "08:00-20:30", "operational_status": "operational", "operational_status:electricity": "always", "operator:type": "private"}}, {"type": "node", "id": 701794697, "lat": -1.3100685, "lon": 36.780605, "tags": {"amenity": "pharmacy", "check_date": "2023-05-02", "contact:phone": "0723745784", "dispensing": "no", "fixme": "resurvey", "health_facility:type": "chemist_over_the_counter", "healthcare": "pharmacy", "mapillary": "523202408856007", "medical_staff:community_pharmacist": "2", "name": "Karanja Chemist", "opening_hours": "08:00-17:30", "operational_status": "operational", "operational_status:electricity": "never", "operator:type": "private", "survey:date": "2018-02-12"}}, {"type": "node", "id": 701794698, "lat": -1.311971, "lon": 36.7834872}, {"type": "node", "id": 701794717, "lat": -1.3113045, "lon": 36.7828755, "tags": {"amenity": "pharmacy", "check_date": "2023-05-04", "contact:phone": "0726975577", "dispensing": "yes", "health_facility:exam_room": "yes", "health_facility:type": "chemist_dispensing", "healthcare": "pharmacy", "medical_service:condom_distribution": "yes", "medical_service:family_planning": "yes", "medical_service:gender_based_violence_services": "yes", "medical_service:pregnancy_test": "yes", "medical_staff:community_pharmacist": "1", "name": "Jadunga Chemist", "opening_hours": "08:00-21:30", "operational_status": "operational", "operational_status:electricity": "always", "operator:type": "private"}}, {"type": "node", "id": 701794720, "lat": -1.310913, "lon": 36.7833456}, {"type": "node", "id": 701794734, "lat": -1.3109184, "lon": 36.7831096, "tags": {"amenity": "pharmacy", "check_date": "2023-05-04", "contact:phone": "0717054194", "dispensing": "yes", "health_facility:type": "chemist_dispensing", "healthcare": "pharmacy", "medical_service:ear_nose_throat": "yes", "medical_service:family_planning": "yes", "medical_service:malaria": "no", "medical_service:pregnancy_test": "yes", "medical_staff:community_pharmacist": "1", "name": "Brimart Chemist", "opening_hours": "08:00-20:45", "operational_status": "operational", "operational_status:electricity": "always", "operator:type": "private"}}, {"type": "node", "id": 701794750, "lat": -1.3112011, "lon": 36.784981}, {"type": "node", "id": 701797825, "lat": -1.3114452, "lon": 36.7902544, "tags": {"amenity": "pharmacy", "check_date": "2023-04-01", "dispensing": "no", "health_facility:type": "chemist_over_the_counter", "healthcare": "pharmacy", "medical_staff:pharm_tech": "1", "name": "Community chemist", "opening_hours": "07:30-20:00", "operational_status": "operational", "operational_status:electricity": "sometimes", "operator:type": "private"}}, {"type": "node", "id": 701797853, "lat": -1.3164404, "lon": 36.7948678, "tags": {"amenity": "pharmacy", "check_date": "2023-05-02", "dispensing": "yes", "health_facility:exam_room": "yes", "health_facility:type": "chemist_dispensing", "healthcare": "pharmacy", "medical_service:pregnancy_test": "yes", "medical_staff:pharm_tech": "1", "name": "Jomingo Chemist", "opening_hours": "07:30-20:00", "operational_status": "operational", "operational_status:electricity": "sometimes", "operator:type": "private"}}, {"type": "node", "id": 701797857, "lat": -1.3163416, "lon": 36.7951081, "tags": {"amenity": "pharmacy", "check_date": "2023-04-01", "dispensing": "no", "health_facility:type": "chemist_over_the_counter", "healthcare": "pharmacy", "medical_staff:pharm_tech": "1", "name": "community chemist", "opening_hours": "07:30-20:00", "operational_status": "operational", "operational_status:electricity": "sometimes", "operator:type": "private"}}, {"type": "node", "id": 708659008, "lat": -1.3078404, "lon": 36.7820031, "tags": {"amenity": "pharmacy", "check_date": "2023-04-26", "dispensing": "yes", "fixme": "resurvey", "health_facility:type": "chemist_dispensing", "healthcare": "pharmacy", "mapillary": "763137327683994", "medical_staff:pharmacist": "1", "name": "Ado pharm Chemist", "opening_hours": "08:00-20:00", "operational_status": "operational", "operational_status:electricity": "sometimes", "operator:type": "private", "survey:date": "2018-02-13"}}, {"type": "node", "id": 708682219, "lat": -1.307928, "lon": 36.7861023}, {"type": "node", "id": 708685448, "lat": -1.3114328, "lon": 36.7873282, "tags": {"amenity": "pharmacy", "health_facility:referals": "MSF Belgium Kwa wanga", "health_facility:type": "herbalist", "healthcare": "pharmacy", "medical_staff:other": "Herbalist", "name": "Community Herbalist", "operational_status": "operational", "operational_status:electricity": "never", "operator:type": "private"}}, {"type": "node", "id": 708685449, "lat": -1.3108793, "lon": 36.7883787, "tags": {"amenity": "pharmacy", "check_date": "2023-05-08", "dispensing": "yes", "health_facility:referals": "KNH", "health_facility:type": "chemist_dispensing", "healthcare": "pharmacy", "media:video_device_number": "8", "media:video_number": "8", "medical_service:family_planning": "yes", "medical_service:pregnancy_test": "yes", "medical_staff:pharmacist": "1", "name": "Mt. Kenya Chemist", "opening_hours": "06:00-22:00", "operational_status": "operational", "operational_status:electricity": "always", "operator:type": "private"}}, {"type": "node", "id": 708685749, "lat": -1.3156345, "lon": 36.7753937, "tags": {"amenity": "hospital", "check_date": "2023-05-02", "contact:email": "ra.lukoye@yahoo.com", "contact:phone": "0734690659/ 0734690659", "health_facility:bed": "5", "health_facility:cot": "0", "health_facility:referals": "Mbagathi,Kenyatta National Hospital", "health_facility:type": "health_center", "healthcare": "hospital", "medical_service:antenatal_care": "yes", "medical_service:basic_emergency_obsteric_care": "yes", "medical_service:condom_distribution": "yes", "medical_service:disease_support_groups": "HIV", "medical_service:family_planning": "yes", "medical_service:gender_based_violence_services": "yes", "medical_service:general_medical_services": "yes", "medical_service:growth_and_nutritional_support": "yes", "medical_service:home_based_care": "yes", "medical_service:immunizations": "yes", "medical_service:inpatient": "yes", "medical_service:integrated_management_of_childhood_illness": "yes", "medical_service:other": "Maternity", "medical_service:outpatient": "yes", "medical_service:pmtct": "yes", "medical_service:prevention": "Polio,Measles", "medical_service:psychosocial_support_counselling": "yes", "medical_service:sexually_transmitted_infections_management": "yes", "medical_service:tb_diagnosis": "yes", "medical_service:vct_hiv_counselling_test": "yes", "medical_staff:clinical_officer": "1", "medical_staff:community_pharmacist": "0", "medical_staff:counsellor": "0", "medical_staff:general_practitioner": "1", "medical_staff:lab_tech": "1", "medical_staff:medical_officer": "0", "medical_staff:midwife": "2", "medical_staff:nurse": "2", "medical_staff:other": "0", "medical_staff:pharm_tech": "0", "medical_staff:pharmacist": "1", "name": "Revival Medical Centre", "opening_hours": "06:00-19:00", "operational_status": "operational", "operational_status:electricity": "sometimes", "operator:type": "faith_based_organization"}}, {"type": "node", "id": 708731820, "lat": -1.3111486, "lon": 36.7755719, "tags": {"amenity": "pharmacy", "contact:phone": "0720266912", "dispensing": "no", "health_facility:type": "chemist_over_the_counter", "healthcare": "pharmacy", "medical_service:dental_services": "yes", "medical_service:ear_nose_throat": "yes", "medical_service:family_planning": "yes", "medical_service:health_insurance": "yes", "medical_service:malaria": "yes", "medical_service:minor_surgery": "yes", "medical_service:pregnancy_test": "yes", "medical_staff:pharmacist": "1", "name": "Ja dunga", "opening_hours": "08:00-13:00", "operational_status": "operational", "operational_status:electricity": "sometimes", "operator:type": "private"}}, {"type": "node", "id": 708750143, "lat": -1.3179486, "lon": 36.7990293, "tags": {"amenity": "pharmacy", "check_date": "2023-04-03", "health_facility:type": "chemist_over_the_counter", "healthcare": "pharmacy", "name": "Kisum Community Pharmacy", "operational_status": "closed"}}, {"type": "node", "id": 708750146, "lat": -1.3179328, "lon": 36.7990986, "tags": {"amenity": "hospital", "check_date": "2023-04-03", "healthcare": "hospital", "name": "Undugu Medical Clinic"}}, {"type": "node", "id": 708750154, "lat": -1.3152152, "lon": 36.7997242}, {"type": "node", "id": 708750160, "lat": -1.3147918, "lon": 36.8002154, "tags": {"amenity": "pharmacy", "check_date": "2023-04-03", "contact:email": "krepha@yahoo.com", "contact:phone": "0723 732 043", "dispensing": "no", "health_facility:patients_per_day": "50", "health_facility:type": "chemist_over_the_counter", "healthcare": "pharmacy", "name": "Nyasira Chemist", "opening_hours": "Mo-Su 09:00-19:00", "operational_status": "operational", "operational_status:electricity": "sometimes", "operator:type": "private"}}, {"type": "node", "id": 708765476, "lat": -1.3077733, "lon": 36.7851718, "tags": {"amenity": "hospital", "check_date": "2023-04-15", "health_facility:referals": "KNH,Magqathi,St Marys", "health_facility:type": "health_center", "healthcare": "hospital", "medical_service:antenatal_care": "yes", "medical_service:basic_emergency_obsteric_care": "yes", "medical_service:circumcision": "yes", "medical_service:comprehensive_essential_obsteric_care": "yes", "medical_service:condom_distribution": "yes", "medical_service:disease_support_groups": "HIV", "medical_service:family_planning": "yes", "medical_service:gender_based_violence_services": "yes", "medical_service:growth_and_nutritional_support": "yes", "medical_service:home_based_care": "yes", "medical_service:immunizations": "yes", "medical_service:integrated_management_of_childhood_illness": "yes", "medical_service:outpatient": "yes", "medical_service:pmtct": "yes", "medical_service:pregnancy_test": "yes", "medical_service:prevention": "STIs", "medical_service:psychosocial_support_counselling": "yes", "medical_service:sexually_transmitted_infections_management": "yes", "medical_service:vct_hiv_counselling_test": "yes", "medical_service:youth_friendly_services": "yes", "medical_staff:clinical_officer": "1", "medical_staff:counsellor": "2", "medical_staff:lab_tech": "1", "medical_staff:medical_officer": "1", "medical_staff:nurse": "3", "name": "Natural Health Centre", "opening_hours": "09:00-16:00", "operational_status": "operational", "operational_status:electricity": "sometimes", "operator:type": "private"}}, {"type": "node", "id": 720900819, "lat": -1.313144, "lon": 36.8191241, "tags": {"amenity": "pharmacy", "healthcare": "pharmacy", "name": "Nairobi West Childrens Clinic"}}, {"type": "node", "id": 813086068, "lat": -1.2485344, "lon": 36.7974107, "tags": {"amenity": "pharmacy"}}, {"type": "node", "id": 874841892, "lat": -1.3147947, "lon": 36.7922037, "tags": {"amenity": "pharmacy", "check_date": "2023-05-08", "dispensing": "no", "health_facility:type": "chemist_over_the_counter", "healthcare": "pharmacy", "medical_staff:pharm_tech": "1", "name": "Community Chemist", "opening_hours": "08:00-20:00", "operational_status:electricity": "sometimes", "operator:type": "private"}}, {"type": "node", "id": 878845728, "lat": -1.3250666, "lon": 36.8878218, "tags": {"amenity": "hospital", "name": "Proposed Health Centre"}}, {"type": "node", "id": 878846165, "lat": -1.3185045, "lon": 36.8844286, "tags": {"amenity": "pharmacy", "dispensing": "yes", "name": "Kingori Medical Centre", "opening_hours": "24/7"}}, {"type": "node", "id": 878846200, "lat": -1.3190408, "lon": 36.8877859, "tags": {"amenity": "pharmacy", "dispensing": "yes", "name": "Hope Medical Clinic", "opening_hours": "24/7"}}, {"type": "node", "id": 878846203, "lat": -1.319304, "lon": 36.8872928}, {"type": "node", "id": 878846270, "lat": -1.317285, "lon": 36.8786013, "tags": {"amenity": "pharmacy", "dispensing": "yes", "name": "Katope Medical Clinic", "opening_hours": "sunrise-sunset"}}, {"type": "node", "id": 878846315, "lat": -1.3160883, "lon": 36.8785253, "tags": {"amenity": "pharmacy", "dispensing": "yes", "name": "Kemer Junior Medical Centre", "opening_hours": "sunrise-sunset"}}, {"type": "node", "id": 878846969, "lat": -1.3159758, "lon": 36.8862514, "tags": {"amenity": "pharmacy", "name": "jobe medical clinic"}}, {"type": "node", "id": 878847129, "lat": -1.3143172, "lon": 36.8823148}, {"type": "node", "id": 878847265, "lat": -1.3151944, "lon": 36.885735}, {"type": "node", "id": 878847326, "lat": -1.3180392, "lon": 36.8873739, "tags": {"amenity": "hospital", "name": "AFYA MEDICAL CLINIC"}}, {"type": "node", "id": 878847429, "lat": -1.3181861, "lon": 36.8874972}, {"type": "node", "id": 878847446, "lat": -1.3177587, "lon": 36.8868036, "tags": {"amenity": "pharmacy", "name": "UZIMA MEDICAL CLINIC"}}, {"type": "node", "id": 911044039, "lat": -1.2944971, "lon": 36.8068848, "tags": {"amenity": "pharmacy", "name": "Upper Hill Medical Centre"}}, {"type": "node", "id": 914492931, "lat": -1.3230048, "lon": 36.8857691, "tags": {"amenity": "pharmacy", "name": "Hope Medical Clinic", "opening_hours": "24/7"}}, {"type": "node", "id": 914492933, "lat": -1.3212211, "lon": 36.8842169, "tags": {"amenity": "pharmacy", "name": "Sunrise Medicare", "opening_hours": "24/7"}}, {"type": "node", "id": 914492957, "lat": -1.3174746, "lon": 36.871776}, {"type": "node", "id": 914492970, "lat": -1.3170613, "lon": 36.8800836, "tags": {"amenity": "pharmacy", "name": "Riverside Medical"}}, {"type": "node", "id": 914492972, "lat": -1.3167416, "lon": 36.8790956, "tags": {"amenity": "pharmacy", "name": "Sunrise Medicare"}}, {"type": "node", "id": 918788366, "lat": -1.2963722, "lon": 36.8060684}, {"type": "node", "id": 918788368, "lat": -1.295265, "lon": 36.8055889}, {"type": "node", "id": 927268420, "lat": -1.2796122, "lon": 36.8155523, "tags": {"amenity": "hospital", "check_date": "2023-05-11", "healthcare": "hospital", "name": "University Mobile Clinic"}}, {"type": "node", "id": 929942246, "lat": -1.2782734, "lon": 36.8107235, "tags": {"amenity": "hospital", "healthcare": "hospital", "name": "Student's Clinic"}}, {"type": "node", "id": 949597358, "lat": -1.3209754, "lon": 36.8863102, "tags": {"amenity": "hospital", "healthcare": "clinic", "name": "Mednoor Medical Clinic", "source_ref": "Mukuru on the move"}}, {"type": "node", "id": 949597378, "lat": -1.3201306, "lon": 36.8851175, "tags": {"amenity": "hospital", "name": "Sidarec Mukuru Community Clinic", "note": "Moved 300 meters south from source", "source_ref": "Mukuru on the move", "type": "CLINIC"}}, {"type": "node", "id": 949597706, "lat": -1.3212836, "lon": 36.8874464}, {"type": "node", "id": 949597796, "lat": -1.3138456, "lon": 36.8830872}, {"type": "node", "id": 949598013, "lat": -1.3144759, "lon": 36.8844394, "tags": {"addr:city": "Nairobi", "amenity": "hospital", "beds": "8", "healthcare": "hospital", "healthcare:speciality": "gynaecology", "name": "Alice Nursing Home", "note": "Moved 300 meters south from source", "opening_hours": "24/7", "operator:type": "private", "source_ref": "Mukuru on the move", "tag": "healthcare:counselling=antenatal", "type": "CBO"}}, {"type": "node", "id": 949598124, "lat": -1.3131696, "lon": 36.8838648}, {"type": "node", "id": 949598210, "lat": -1.3131305, "lon": 36.8812783}, {"type": "node", "id": 949598225, "lat": -1.3165544, "lon": 36.8922635, "tags": {"amenity": "hospital", "healthcare": "nursing_home", "name": "Huruma Nursing Home", "source_ref": "Mukuru on the move"}}, {"type": "node", "id": 1038103795, "lat": -1.2633972, "lon": 36.8599901, "tags": {"amenity": "pharmacy", "dispensing": "yes", "name": "Uzima clinic", "opening_hours": "24/7"}}, {"type": "node", "id": 1038103805, "lat": -1.2627701, "lon": 36.8601884, "tags": {"amenity": "pharmacy", "dispensing": "yes", "name": "Maisha clinic", "opening_hours": "24/7"}}, {"type": "node", "id": 1038172414, "lat": -1.2547025, "lon": 36.8774829}, {"type": "node", "id": 1038193525, "lat": -1.2641573, "lon": 36.8539154}, {"type": "node", "id": 1038193543, "lat": -1.2641103, "lon": 36.8546045}, {"type": "node", "id": 1038193546, "lat": -1.2644825, "lon": 36.8571557, "tags": {"amenity": "hospital", "name": "UnduguMedical Clinic"}}, {"type": "node", "id": 1038193563, "lat": -1.2651413, "lon": 36.855586}, {"type": "node", "id": 1038195561, "lat": -1.2593328, "lon": 36.8778755}, {"type": "node", "id": 1038195573, "lat": -1.2599667, "lon": 36.8746973}, {"type": "node", "id": 1038202656, "lat": -1.2618123, "lon": 36.8601064, "tags": {"amenity": "pharmacy", "dispensing": "Pharmacy"}}, {"type": "node", "id": 1038202666, "lat": -1.2619504, "lon": 36.8589916}, {"type": "node", "id": 1038202692, "lat": -1.2584587, "lon": 36.8619385, "tags": {"amenity": "pharmacy", "dispensing": "yes", "name": "Neigbourhood chemist", "shop": "chemist"}}, {"type": "node", "id": 1038202846, "lat": -1.2583704, "lon": 36.862128, "tags": {"amenity": "pharmacy", "dispensing": "Pharmacy"}}, {"type": "node", "id": 1038219168, "lat": -1.2534479, "lon": 36.8702577, "tags": {"amenity": "pharmacy", "dispensing": "yes", "healthcare": "pharmacy", "name": "Nuffield Medical Service Providers", "opening_hours": "24/7"}}, {"type": "node", "id": 1098630261, "lat": -1.3361686, "lon": 36.7262237}, {"type": "node", "id": 1098630284, "lat": -1.3362174, "lon": 36.7261543}, {"type": "node", "id": 1098631586, "lat": -1.3362111, "lon": 36.7258801}, {"type": "node", "id": 1098631633, "lat": -1.3357799, "lon": 36.726356}, {"type": "node", "id": 1098632438, "lat": -1.3361512, "lon": 36.7263976}, {"type": "node", "id": 1098632875, "lat": -1.3358527, "lon": 36.7258215}, {"type": "node", "id": 1098633116, "lat": -1.3361953, "lon": 36.7260649}, {"type": "node", "id": 1101638771, "lat": -1.2638847, "lon": 36.8442079, "tags": {"amenity": "hospital", "healthcare": "hospital", "name": "Huduma Bora Medics Clinic"}}, {"type": "node", "id": 1101737176, "lat": -1.2576337, "lon": 36.873945}, {"type": "node", "id": 1101737177, "lat": -1.259273, "lon": 36.8669942}, {"type": "node", "id": 1101737215, "lat": -1.2574642, "lon": 36.8691518}, {"type": "node", "id": 1101737232, "lat": -1.260616, "lon": 36.8667563}, {"type": "node", "id": 1103092191, "lat": -1.2601312, "lon": 36.8646522, "tags": {"amenity": "pharmacy"}}, {"type": "node", "id": 1103092285, "lat": -1.2595524, "lon": 36.8643816}, {"type": "node", "id": 1103092366, "lat": -1.2588805, "lon": 36.8639762}, {"type": "node", "id": 1103092401, "lat": -1.263136, "lon": 36.8615677, "tags": {"amenity": "pharmacy", "dispensing": "yes", "health_facility:type": "chemist_dispensing", "medical_service:condom_distribution": "yes", "medical_service:family_planning": "yes", "medical_service:malaria": "yes", "medical_service:outpatient": "yes", "medical_service:pregnancy_test": "yes", "medical_service:vct_hiv_counselling_test": "no", "name": "Boodad Communicatiion Lifeguard Chemist", "opening_hours": "07:00-21:00", "operational_status": "operational", "operational_status:electricity": "sometimes", "operator:type": "private"}}, {"type": "node", "id": 1103092408, "lat": -1.2624673, "lon": 36.8631166, "tags": {"amenity": "pharmacy"}}, {"type": "node", "id": 1103092422, "lat": -1.2592743, "lon": 36.8642117}, {"type": "node", "id": 1103092466, "lat": -1.2599385, "lon": 36.864724, "tags": {"amenity": "pharmacy", "healthcare": "pharmacy", "name": "Kim's Pharmacy"}}, {"type": "node", "id": 1103092490, "lat": -1.2621648, "lon": 36.8629112, "tags": {"amenity": "pharmacy", "name:it": "Farmacia"}}, {"type": "node", "id": 1110227333, "lat": -1.263407, "lon": 36.8568156, "tags": {"amenity": "pharmacy", "dispensing": "yes", "name": "4B Dispensing"}}, {"type": "node", "id": 1110239842, "lat": -1.2658072, "lon": 36.8456235, "tags": {"amenity": "pharmacy", "dispensing": "yes", "healthcare": "pharmacy", "name": "Mlango kubwa health care centre", "name:it": "Mlango Kubwa"}}, {"type": "node", "id": 1110239846, "lat": -1.2652685, "lon": 36.8453052, "tags": {"amenity": "pharmacy", "dispensing": "yes", "healthcare": "pharmacy", "name": "East chem medical", "name:it": "East Chem Medical"}}, {"type": "node", "id": 1110239850, "lat": -1.2649739, "lon": 36.844991, "tags": {"amenity": "pharmacy", "dispensing": "yes", "healthcare": "pharmacy", "name": "Blessed Medical Clinic"}}, {"type": "node", "id": 1110239855, "lat": -1.2661003, "lon": 36.845148, "tags": {"amenity": "pharmacy", "dispensing": "yes", "healthcare": "pharmacy", "name": "LIZ Rich medical"}}, {"type": "node", "id": 1110239857, "lat": -1.2651518, "lon": 36.8440642, "tags": {"amenity": "pharmacy", "dispensing": "yes", "healthcare": "pharmacy", "name": "Be well chemists"}}, {"type": "node", "id": 1110239864, "lat": -1.2659536, "lon": 36.8456541, "tags": {"amenity": "pharmacy", "dispensing": "yes", "healthcare": "pharmacy", "name": "Beden", "name:it": "Beden"}}, {"type": "node", "id": 1111566296, "lat": -1.2568688, "lon": 36.8755944, "tags": {"amenity": "pharmacy", "dispensing": "yes", "healthcare": "pharmacy", "name": "Life Care Chemist", "name:it": "Life Care"}}, {"type": "node", "id": 1111566368, "lat": -1.257507, "lon": 36.8744569, "tags": {"amenity": "pharmacy", "dispensing": "yes", "healthcare": "pharmacy", "name": "Dispensing Chemist"}}, {"type": "node", "id": 1111566423, "lat": -1.2556644, "lon": 36.8741572}, {"type": "node", "id": 1111566426, "lat": -1.2555289, "lon": 36.876015, "tags": {"amenity": "pharmacy", "dispensing": "yes", "healthcare": "pharmacy", "name": "MEDINA CHEMIST", "name:it": "Medina"}}, {"type": "node", "id": 1111586848, "lat": -1.2522877, "lon": 36.8696384, "tags": {"amenity": "pharmacy", "dispensing": "yes", "healthcare": "pharmacy", "name": "Drug Port"}}, {"type": "node", "id": 1123193294, "lat": -1.2596911, "lon": 36.8675545, "tags": {"amenity": "hospital", "healthcare": "hospital", "name": "Precise hospital", "name:it": "Precise"}}, {"type": "node", "id": 1123193329, "lat": -1.2600309, "lon": 36.8672084}, {"type": "node", "id": 1123193344, "lat": -1.2577298, "lon": 36.8680346}, {"type": "node", "id": 1123193407, "lat": -1.2590729, "lon": 36.866922}, {"type": "node", "id": 1123193430, "lat": -1.259665, "lon": 36.8687463}, {"type": "node", "id": 1123201086, "lat": -1.2575008, "lon": 36.8691087, "tags": {"amenity": "pharmacy", "dispensing": "yes", "name": "Amani Chemist"}}, {"type": "node", "id": 1123201098, "lat": -1.2580157, "lon": 36.8721282, "tags": {"amenity": "hospital", "name": "Urban rural initiative overal dev.health providers"}}, {"type": "node", "id": 1123201102, "lat": -1.2575539, "lon": 36.8721325}, {"type": "node", "id": 1123201133, "lat": -1.2575181, "lon": 36.869002, "tags": {"amenity": "pharmacy", "dispensing": "yes", "healthcare": "pharmacy", "name": "Transmax chemist"}}, {"type": "node", "id": 1123209250, "lat": -1.2542863, "lon": 36.8763409, "tags": {"amenity": "pharmacy", "dispensing": "yes", "healthcare": "pharmacy", "name": "Dawaline Pharmacy", "name:it": "Dawaline", "opening_hours": "Mo-Fr 08:30-20:00"}}, {"type": "node", "id": 1124602212, "lat": -1.2594247, "lon": 36.8646558}, {"type": "node", "id": 1124602228, "lat": -1.2588895, "lon": 36.8644632, "tags": {"amenity": "pharmacy", "dispensing": "yes", "name": "Late night chemist", "name:it": "Late Night"}}, {"type": "node", "id": 1124602251, "lat": -1.261479, "lon": 36.8659058, "tags": {"amenity": "hospital", "healthcare": "hospital", "name": "Lions health clinic mathare valley"}}, {"type": "node", "id": 1124602252, "lat": -1.2585385, "lon": 36.8646387}, {"type": "node", "id": 1124602264, "lat": -1.2584864, "lon": 36.8656178}, {"type": "node", "id": 1204018371, "lat": -1.3274282, "lon": 36.7891308, "tags": {"amenity": "pharmacy", "name": "Langata Chemists"}}, {"type": "node", "id": 1221423590, "lat": -1.2626234, "lon": 36.8130772}, {"type": "node", "id": 1221423592, "lat": -1.2622694, "lon": 36.8124817}, {"type": "node", "id": 1221423597, "lat": -1.2647847, "lon": 36.8114786}, {"type": "node", "id": 1221423609, "lat": -1.2647365, "lon": 36.811779}, {"type": "node", "id": 1221423654, "lat": -1.2645702, "lon": 36.8111406}, {"type": "node", "id": 1249726647, "lat": -1.3097149, "lon": 36.7861628, "tags": {"amenity": "pharmacy", "check_date": "2023-04-17", "dispensing": "yes", "healthcare": "pharmacy", "name": "Rahisi Chemist", "opening_hours": "08:00-21:00"}}, {"type": "node", "id": 1249779969, "lat": -1.3076061, "lon": 36.7826426, "tags": {"amenity": "pharmacy", "check_date": "2023-04-15", "fixme": "resurvey", "healthcare": "pharmacy", "mapillary": "477989346612292", "name": "Brimat Chemist", "shop": "chemist", "survey:date": "2018-02-12"}}, {"type": "node", "id": 1271155392, "lat": -1.293483, "lon": 36.7916908, "tags": {"amenity": "hospital", "check_date": "2023-05-23", "name": "Jamko health clinic"}}, {"type": "node", "id": 1333664214, "lat": -1.2954349, "lon": 36.8014377}, {"type": "node", "id": 1392380366, "lat": -1.2955153, "lon": 36.807812}, {"type": "node", "id": 1392380377, "lat": -1.2955922, "lon": 36.8080133}, {"type": "node", "id": 1392380503, "lat": -1.2953455, "lon": 36.8077934}, {"type": "node", "id": 1392380509, "lat": -1.2955046, "lon": 36.8079944}, {"type": "node", "id": 1392380615, "lat": -1.2954474, "lon": 36.8077907}, {"type": "node", "id": 1392380645, "lat": -1.2954126, "lon": 36.8077719}, {"type": "node", "id": 1392380660, "lat": -1.2955708, "lon": 36.8079275}, {"type": "node", "id": 1392380668, "lat": -1.2954528, "lon": 36.8079087}, {"type": "node", "id": 1392380688, "lat": -1.2955662, "lon": 36.8079086}, {"type": "node", "id": 1392380705, "lat": -1.2954957, "lon": 36.8079007}, {"type": "node", "id": 1392380709, "lat": -1.2954957, "lon": 36.8078417}, {"type": "node", "id": 1392380719, "lat": -1.2955011, "lon": 36.8079248}, {"type": "node", "id": 1392380762, "lat": -1.2953536, "lon": 36.8078417}, {"type": "node", "id": 1392380851, "lat": -1.2953992, "lon": 36.8079141}, {"type": "node", "id": 1392380852, "lat": -1.2955233, "lon": 36.8079193}, {"type": "node", "id": 1392380863, "lat": -1.2955708, "lon": 36.8078202}, {"type": "node", "id": 1392380867, "lat": -1.2954429, "lon": 36.8078388}, {"type": "node", "id": 1417861337, "lat": -1.3181185, "lon": 36.8820091, "tags": {"amenity": "pharmacy", "dispensing": "yes", "name": "Mediva Chemist"}}, {"type": "node", "id": 1417861348, "lat": -1.3181559, "lon": 36.8823115, "tags": {"amenity": "pharmacy", "dispensing": "yes", "name": "Imani Health Chemist"}}, {"type": "node", "id": 1417918717, "lat": -1.3142156, "lon": 36.8850327}, {"type": "node", "id": 1417918726, "lat": -1.3153677, "lon": 36.8836506, "tags": {"amenity": "pharmacy", "dispensing": "no", "name": "Unity Medical Services"}}, {"type": "node", "id": 1417918727, "lat": -1.3139841, "lon": 36.8845362, "tags": {"amenity": "pharmacy", "dispensing": "no", "name": "Vision View Medical Services"}}, {"type": "node", "id": 1419005001, "lat": -1.3153006, "lon": 36.8859079, "tags": {"amenity": "hospital", "name": "St Teresa Medical Clinic"}}, {"type": "node", "id": 1419005002, "lat": -1.3194424, "lon": 36.8870423}, {"type": "node", "id": 1419101732, "lat": -1.3235111, "lon": 36.8886398}, {"type": "node", "id": 1419101746, "lat": -1.3222884, "lon": 36.8871647, "tags": {"amenity": "hospital", "name": "Mukuru Medical Clinic"}}, {"type": "node", "id": 1419101749, "lat": -1.3194392, "lon": 36.8870659, "tags": {"amenity": "hospital", "name": "Mertenity clinic"}}, {"type": "node", "id": 1419101775, "lat": -1.3279842, "lon": 36.8921922, "tags": {"amenity": "hospital", "name": "Scion Health care"}}, {"type": "node", "id": 1419101779, "lat": -1.3220975, "lon": 36.8871783}, {"type": "node", "id": 1425591484, "lat": -1.3129811, "lon": 36.8812704}, {"type": "node", "id": 1425591504, "lat": -1.3130101, "lon": 36.8812151}, {"type": "node", "id": 1425591512, "lat": -1.313059, "lon": 36.8812408}, {"type": "node", "id": 1425591524, "lat": -1.3130655, "lon": 36.8812283}, {"type": "node", "id": 1425591532, "lat": -1.3131218, "lon": 36.8813442}, {"type": "node", "id": 1425591546, "lat": -1.313137, "lon": 36.8812659}, {"type": "node", "id": 1425591550, "lat": -1.3131508, "lon": 36.8812889}, {"type": "node", "id": 1432507872, "lat": -1.3168652, "lon": 36.8739347, "tags": {"amenity": "pharmacy", "dispensing": "yes", "name": "Afya dispesing clinic", "opening_hours": "24/7"}}, {"type": "node", "id": 1432507883, "lat": -1.3186676, "lon": 36.8759058, "tags": {"amenity": "pharmacy", "dispensing": "yes", "name": "Caprikema medical chemist"}}, {"type": "node", "id": 1432507889, "lat": -1.3168413, "lon": 36.8768954, "tags": {"amenity": "pharmacy", "dispensing": "yes", "name": "Col-phrm chemist"}}, {"type": "node", "id": 1432508000, "lat": -1.3151124, "lon": 36.8765197, "tags": {"amenity": "pharmacy", "dispensing": "yes", "name": "MASCO medical clinic"}}, {"type": "node", "id": 1432508012, "lat": -1.3162694, "lon": 36.8762103, "tags": {"amenity": "pharmacy", "dispensing": "yes", "name": "Mara health centre"}}, {"type": "node", "id": 1432508020, "lat": -1.3195476, "lon": 36.874496, "tags": {"amenity": "pharmacy", "dispensing": "yes", "name": "Mwa medical clinic and maternity"}}, {"type": "node", "id": 1432508035, "lat": -1.314165, "lon": 36.8757343, "tags": {"amenity": "pharmacy", "dispensing": "yes", "name": "P.M.C. medical clinic"}}, {"type": "node", "id": 1432508036, "lat": -1.3191469, "lon": 36.8755813, "tags": {"amenity": "pharmacy", "dispensing": "yes", "name": "Paradise med clinic"}}, {"type": "node", "id": 1432508038, "lat": -1.31145, "lon": 36.8673918, "tags": {"amenity": "pharmacy", "dispensing": "yes", "name": "Pona medical clinic"}}, {"type": "node", "id": 1432508043, "lat": -1.3114625, "lon": 36.8667687, "tags": {"amenity": "pharmacy", "dispensing": "yes", "name": "Riverside medical clinic"}}, {"type": "node", "id": 1432508056, "lat": -1.315995, "lon": 36.8755193, "tags": {"amenity": "pharmacy", "dispensing": "yes", "name": "St. Mark Mediacal clinic"}}, {"type": "node", "id": 1432508057, "lat": -1.3162037, "lon": 36.8758475, "tags": {"amenity": "pharmacy", "dispensing": "yes", "name": "St. Mathias medical clinic"}}, {"type": "node", "id": 1432508063, "lat": -1.3155453, "lon": 36.8749513, "tags": {"amenity": "pharmacy", "dispensing": "yes", "name": "Tumaini comm health service"}}, {"type": "node", "id": 1432508076, "lat": -1.3168001, "lon": 36.8751183}, {"type": "node", "id": 1432508108, "lat": -1.3189993, "lon": 36.8734433, "tags": {"amenity": "pharmacy", "dispensing": "yes", "name": "wadani hospital"}}, {"type": "node", "id": 1437347843, "lat": -1.3192073, "lon": 36.874086, "tags": {"amenity": "pharmacy", "dispensing": "yes", "name": "Kengori med clinic"}}, {"type": "node", "id": 1437347851, "lat": -1.3173648, "lon": 36.8712288, "tags": {"amenity": "pharmacy", "dispensing": "yes", "name": "Lagos cilinic"}}, {"type": "node", "id": 1437348030, "lat": -1.3159035, "lon": 36.8746298, "tags": {"amenity": "pharmacy", "dispensing": "yes", "name": "Rueben Medical Clinic Pharmacy", "opening_hours": "24/7"}}, {"type": "node", "id": 1437348033, "lat": -1.3161826, "lon": 36.8743824, "tags": {"amenity": "pharmacy", "dispensing": "yes", "name": "Ponya Clinic Pharmacy"}}, {"type": "node", "id": 1437348037, "lat": -1.3166605, "lon": 36.874071, "tags": {"amenity": "pharmacy", "dispensing": "yes", "name": "Glory Medical Clinic Pharmacy", "opening_hours": "24/7"}}, {"type": "node", "id": 1446059176, "lat": -1.3165969, "lon": 36.8663755, "tags": {"amenity": "pharmacy", "dispensing": "yes", "name": "Faith medical clinic"}}, {"type": "node", "id": 1446059183, "lat": -1.3159869, "lon": 36.8660087, "tags": {"amenity": "pharmacy", "dispensing": "yes", "name": "All saint medical clinic"}}, {"type": "node", "id": 1446059205, "lat": -1.3159573, "lon": 36.866398, "tags": {"amenity": "pharmacy", "dispensing": "yes", "name": "Chemist"}}, {"type": "node", "id": 1446059231, "lat": -1.3161969, "lon": 36.8683438, "tags": {"amenity": "pharmacy", "dispensing": "yes", "name": "Chemist"}}, {"type": "node", "id": 1446059245, "lat": -1.3101345, "lon": 36.8747211, "tags": {"amenity": "pharmacy", "dispensing": "yes", "name": "Flodo medical clinic"}}, {"type": "node", "id": 1446059252, "lat": -1.3095087, "lon": 36.8775998, "tags": {"amenity": "pharmacy", "dispensing": "yes", "healthcare": "pharmacy", "name": "Medical clinic"}}, {"type": "node", "id": 1446059260, "lat": -1.3148491, "lon": 36.868187, "tags": {"amenity": "pharmacy", "dispensing": "yes", "name": "clinic"}}, {"type": "node", "id": 1446059307, "lat": -1.3097797, "lon": 36.8761755, "tags": {"amenity": "pharmacy", "dispensing": "yes", "name": "Chemist"}}, {"type": "node", "id": 1446059335, "lat": -1.3098851, "lon": 36.8757267, "tags": {"amenity": "pharmacy", "dispensing": "yes", "name": "Riders medical centre"}}, {"type": "node", "id": 1453526846, "lat": -1.3158117, "lon": 36.8346498, "tags": {"amenity": "hospital", "name": "Meridian Medical Centre"}}, {"type": "node", "id": 1453973005, "lat": -1.313779, "lon": 36.8492872, "tags": {"amenity": "pharmacy", "dispensing": "chemist", "name": "chemist", "shop": "chemist"}}, {"type": "node", "id": 1456685353, "lat": -1.3138007, "lon": 36.846679, "tags": {"amenity": "pharmacy", "dispensing": "yes", "name": "Chemist"}}, {"type": "node", "id": 1456685402, "lat": -1.3138668, "lon": 36.8480561, "tags": {"amenity": "pharmacy", "dispensing": "yes", "name": "Trust and Rejoice Medical Clinic"}}, {"type": "node", "id": 1456685442, "lat": -1.3139484, "lon": 36.8470319, "tags": {"amenity": "pharmacy", "dispensing": "yes", "name": "nelima chemist"}}, {"type": "node", "id": 1460515333, "lat": -1.310569, "lon": 36.6901314}, {"type": "node", "id": 1483304307, "lat": -1.307134, "lon": 36.8389445, "tags": {"amenity": "pharmacy", "dispensing": "no", "name": "chemist"}}, {"type": "node", "id": 1483304308, "lat": -1.3073265, "lon": 36.8390228, "tags": {"amenity": "pharmacy", "dispensing": "no", "name": "chemist"}}, {"type": "node", "id": 1486028890, "lat": -1.313071, "lon": 36.8497213, "tags": {"amenity": "pharmacy", "dispensing": "no", "name": "Upendo Medical Clinic"}}, {"type": "node", "id": 1493484799, "lat": -1.3113055, "lon": 36.8451478, "tags": {"amenity": "pharmacy", "dispensing": "no", "name": "Enina clinic &"}}, {"type": "node", "id": 1498313880, "lat": -1.3085072, "lon": 36.835852}, {"type": "node", "id": 1498333313, "lat": -1.3079521, "lon": 36.8347093}, {"type": "node", "id": 1498333340, "lat": -1.3086095, "lon": 36.8358248}, {"type": "node", "id": 1499916442, "lat": -1.3092694, "lon": 36.8370698, "tags": {"amenity": "pharmacy", "dispensing": "awambo chemist"}}, {"type": "node", "id": 1500016752, "lat": -1.3084388, "lon": 36.8353341, "tags": {"amenity": "pharmacy", "dispensing": "trust and rejoice medical clinic"}}, {"type": "node", "id": 1500016771, "lat": -1.3109108, "lon": 36.8380938, "tags": {"amenity": "pharmacy", "dispensing": "yes", "name": "Trust and Rejoice Medical Clinic"}}, {"type": "node", "id": 1500016792, "lat": -1.3118338, "lon": 36.8453885, "tags": {"amenity": "pharmacy", "dispensing": "trust and rejoice medical clinic"}}, {"type": "node", "id": 1500016798, "lat": -1.3119287, "lon": 36.8429585, "tags": {"amenity": "pharmacy", "dispensing": "yes", "name": "Trust and Rejoice Medical Clinic"}}, {"type": "node", "id": 1500016806, "lat": -1.3121436, "lon": 36.8455932, "tags": {"amenity": "pharmacy", "dispensing": "trust and rejoice medical clinic"}}, {"type": "node", "id": 1500016811, "lat": -1.3123018, "lon": 36.8466538, "tags": {"amenity": "pharmacy", "dispensing": "yes", "name": "Trust and Rejoice Medical Clinic"}}, {"type": "node", "id": 1500016821, "lat": -1.3130784, "lon": 36.8454937, "tags": {"amenity": "pharmacy", "dispensing": "yes", "name": "Trust and Rejoice Medical Clinic"}}, {"type": "node", "id": 1500016839, "lat": -1.3141903, "lon": 36.8477224, "tags": {"amenity": "pharmacy", "dispensing": "trust and rejoice medical clinic"}}, {"type": "node", "id": 1500016842, "lat": -1.3142406, "lon": 36.8479813, "tags": {"amenity": "pharmacy", "dispensing": "trust and rejoice medical clinic"}}, {"type": "node", "id": 1500016847, "lat": -1.3147887, "lon": 36.8484894, "tags": {"amenity": "pharmacy", "dispensing": "trust and rejoice medical clinic"}}, {"type": "node", "id": 1515337225, "lat": -1.2952989, "lon": 36.8039977}, {"type": "node", "id": 1515337230, "lat": -1.2970526, "lon": 36.8061802}, {"type": "node", "id": 1515337234, "lat": -1.2973639, "lon": 36.8028094}, {"type": "node", "id": 1515337237, "lat": -1.2953283, "lon": 36.8026675}, {"type": "node", "id": 1515337241, "lat": -1.2952564, "lon": 36.8058615}, {"type": "node", "id": 1515337243, "lat": -1.2954987, "lon": 36.8025434}, {"type": "node", "id": 1515337245, "lat": -1.2976464, "lon": 36.8032684}, {"type": "node", "id": 1576454508, "lat": -1.295329, "lon": 36.8026871}, {"type": "node", "id": 1576454510, "lat": -1.29531, "lon": 36.8035453}, {"type": "node", "id": 1577711339, "lat": -1.3075574, "lon": 36.8197636}, {"type": "node", "id": 1585635168, "lat": -1.322328, "lon": 36.7744036, "tags": {"addr:city": "Nairobi", "addr:postcode": "00800", "addr:street": "Police Dog Unit Road", "amenity": "hospital", "check_date": "2023-05-12", "email": "info@stmmh.co.ke", "healthcare": "hospital", "name": "Saint Mary's Mission Hospital", "phone": "+254 717305204", "website": "https://stmmh.co.ke/"}}, {"type": "node", "id": 1691733175, "lat": -1.3121477, "lon": 36.7785696, "tags": {"amenity": "pharmacy", "check_date": "2023-05-02", "contact:phone": "0710755812", "dispensing": "yes", "fixme": "resurvey", "health_facility:referals": "KHN", "health_facility:type": "Dispensing drugs", "healthcare": "pharmacy", "mapillary": "317342319748973", "medical_service:circumcision": "yes", "medical_service:condom_distribution": "yes", "medical_service:dental_services": "yes", "medical_service:malaria": "yes", "medical_service:pregnancy_test": "yes", "medical_staff:clinical_officer": "1", "medical_staff:counsellor": "1", "medical_staff:pharmacist": "1", "name": "Capital Chemist", "opening_hours": "07:30-20:30", "operational_status": "operational", "operational_status:electricity": "often", "operator:type": "private", "survey:date": "2018-02-13"}}, {"type": "node", "id": 1722620244, "lat": -1.3166329, "lon": 36.7761818, "tags": {"amenity": "pharmacy", "dispensing": "yes", "health_facility:type": "chemist_dispensing", "healthcare": "pharmacy", "medical_service:condom_distribution": "yes", "medical_service:family_planning": "yes", "medical_service:immunizations": "yes", "medical_service:inpatient": "no", "medical_service:malaria": "yes", "medical_service:outpatient": "yes", "medical_service:pregnancy_test": "yes", "medical_staff:pharmacist": "1", "name": "Lindex Dispensing Chemist", "opening_hours": "08:00-21:00", "operational_status": "operational", "operational_status:electricity": "sometimes", "operator:type": "private"}}, {"type": "node", "id": 1722668365, "lat": -1.3115149, "lon": 36.7783202, "tags": {"amenity": "pharmacy", "check_date": "2023-05-02", "dispensing": "yes", "fixme": "resurvey", "healthcare": "pharmacy", "mapillary": "1683436688525420", "name": "Stage chemist", "survey:date": "2018-02-13"}}, {"type": "node", "id": 1727588861, "lat": -1.3130861, "lon": 36.7823436, "tags": {"amenity": "pharmacy", "dispensing": "no", "healthcare": "pharmacy", "name": "family drug center"}}, {"type": "node", "id": 1727588883, "lat": -1.3151478, "lon": 36.7794846, "tags": {"amenity": "pharmacy", "check_date": "2023-05-23", "dispensing": "no", "healthcare": "pharmacy", "name": "toresh chemist"}}, {"type": "node", "id": 1732933776, "lat": -1.2471818, "lon": 36.8925733}, {"type": "node", "id": 1732933877, "lat": -1.2466004, "lon": 36.892626, "tags": {"amenity": "pharmacy", "dispensing": "Candy Phamacy", "name:it": "Farmacia"}}, {"type": "node", "id": 1746645844, "lat": -1.3068658, "lon": 36.8020944, "tags": {"amenity": "pharmacy", "check_date": "2023-03-27", "healthcare": "pharmacy", "name": "Ngumo Pharmacy"}}, {"type": "node", "id": 1747328769, "lat": -1.2324985, "lon": 36.8138962}, {"type": "node", "id": 1762029811, "lat": -1.2753214, "lon": 36.9006322}, {"type": "node", "id": 1762029812, "lat": -1.2727659, "lon": 36.89935}, {"type": "node", "id": 1762029813, "lat": -1.273785, "lon": 36.8978362}, {"type": "node", "id": 1762029816, "lat": -1.2760939, "lon": 36.8990678}, {"type": "node", "id": 1764200327, "lat": -1.2968778, "lon": 36.7837464}, {"type": "node", "id": 1771237509, "lat": -1.2515148, "lon": 36.8891765}, {"type": "node", "id": 1771237563, "lat": -1.2518606, "lon": 36.8895184}, {"type": "node", "id": 1771237593, "lat": -1.2518005, "lon": 36.8889103}, {"type": "node", "id": 1771237601, "lat": -1.2519682, "lon": 36.8887025}, {"type": "node", "id": 1771237629, "lat": -1.2523874, "lon": 36.8890515}, {"type": "node", "id": 1771323211, "lat": -1.3155271, "lon": 36.7927989, "tags": {"amenity": "pharmacy", "check_date": "2023-04-01", "dispensing": "no", "healthcare": "pharmacy", "name": "Chemist", "opening_hours": "Mo-Su 05:00-20:00"}}, {"type": "node", "id": 1801454683, "lat": -1.3111143, "lon": 36.774943, "tags": {"amenity": "pharmacy", "health_facility:type": "chemist_over_the_counter", "healthcare": "pharmacy", "name": "Ant Hill Chemist", "opening_hours": "Mo-Fr 08:30-20:00"}}, {"type": "node", "id": 1801542163, "lat": -1.3076675, "lon": 36.8360863}, {"type": "node", "id": 1804804138, "lat": -1.3104547, "lon": 36.7739346, "tags": {"amenity": "hospital", "check_date": "2023-05-02", "contact:email": "clinix@africaonline.co.ke", "contact:phone": "0772191191", "health_facility:exam_room": "yes", "health_facility:patients_per_day": "30", "health_facility:referals": "KHN,Nairobi west hospital", "health_facility:type": "Health clinic", "healthcare": "hospital", "medical_service:family_planning": "yes", "medical_service:general_medical_services": "yes", "medical_service:malaria": "yes", "medical_service:outpatient": "yes", "medical_service:pregnancy_test": "yes", "medical_service:vct_hiv_counselling_test": "yes", "medical_staff:clinical_officer": "1", "medical_staff:lab_tech": "1", "medical_staff:medical_officer": "1", "medical_staff:pharmacist": "1", "name": "Clinic Healthcare Kibera Branch", "opening_hours": "09:00", "operational_status": "operational", "operational_status:electricity": "always", "operator:type": "private"}}, {"type": "node", "id": 1804804159, "lat": -1.3105009, "lon": 36.7739834, "tags": {"amenity": "pharmacy", "check_date": "2023-05-02", "dispensing": "yes", "health_facility:exam_room": "yes", "health_facility:type": "chemist_dispensing", "healthcare": "pharmacy", "medical_service:outpatient": "yes", "medical_staff:pharmacist": "2", "name": "Triwam Pharmacy", "opening_hours": "Mo-Fr 08:30-20:00", "operational_status": "operational", "operational_status:electricity": "always", "operator:type": "private"}}, {"type": "node", "id": 1804833360, "lat": -1.3080124, "lon": 36.8349119}, {"type": "node", "id": 1804833379, "lat": -1.3083041, "lon": 36.8355093}, {"type": "node", "id": 1864056805, "lat": -1.3077754, "lon": 36.7811217}, {"type": "node", "id": 1875796679, "lat": -1.3030223, "lon": 36.7845718}, {"type": "node", "id": 1875796688, "lat": -1.3047254, "lon": 36.7746747, "tags": {"amenity": "pharmacy", "dispensing": "yes", "healthcare": "pharmacy", "name": "Woodley"}}, {"type": "node", "id": 1999653263, "lat": -1.3117284, "lon": 36.8707552, "tags": {"amenity": "hospital", "name": "Medilink medical centre"}}, {"type": "node", "id": 2001001140, "lat": -1.3117686, "lon": 36.8340359}, {"type": "node", "id": 2001001145, "lat": -1.3117622, "lon": 36.8348674}, {"type": "node", "id": 2001001163, "lat": -1.3139158, "lon": 36.8420619, "tags": {"amenity": "hospital", "name": "RTI health centre"}}, {"type": "node", "id": 2001001172, "lat": -1.3077851, "lon": 36.8333441}, {"type": "node", "id": 2001268286, "lat": -1.320252, "lon": 36.8883133, "tags": {"amenity": "pharmacy", "dispensing": "yes", "name": "Gastine"}}, {"type": "node", "id": 2051080150, "lat": -1.3151091, "lon": 36.7998541, "tags": {"amenity": "pharmacy", "check_date": "2023-04-03", "dispensing": "no", "health_facility:patients_per_day": "13", "health_facility:referals": "Mbagathi District Hospital,KNH", "health_facility:type": "medical_clinic", "healthcare": "pharmacy", "name": "cheupe chemist", "opening_hours": "Mo-Su 08:00-21:00", "operational_status": "operational", "operator:type": "private"}}, {"type": "node", "id": 2052594494, "lat": -1.3111604, "lon": 36.7950002, "tags": {"amenity": "pharmacy", "dispensing": "yes", "health_facility:exam_room": "yes", "health_facility:type": "chemist_over_the_counter", "healthcare": "pharmacy", "medical_staff:pharm_tech": "3", "name": "St Edith", "opening_hours": "07:30-20:00", "operational_status": "operational", "operational_status:electricity": "sometimes", "operator:type": "private"}}, {"type": "node", "id": 2083924666, "lat": -1.3102202, "lon": 36.887726}, {"type": "node", "id": 2145322136, "lat": -1.3114875, "lon": 36.8357858, "tags": {"amenity": "pharmacy", "name": "The Guardian Pharmacy", "name:it": "The Guardian"}}, {"type": "node", "id": 2145329589, "lat": -1.3164881, "lon": 36.8350221, "tags": {"addr:city": "Nairobi", "addr:street": "Mombasa Road", "amenity": "hospital", "healthcare": "hospital", "name": "The AgaKhan University"}}, {"type": "node", "id": 2145336812, "lat": -1.3168213, "lon": 36.8350478, "tags": {"addr:city": "Nairobi", "addr:street": "Mombasa Road", "amenity": "pharmacy", "healthcare": "pharmacy", "name": "Inkamed Pharmeceuticals"}}, {"type": "node", "id": 2145344446, "lat": -1.3137254, "lon": 36.8284987}, {"type": "node", "id": 2344361838, "lat": -1.2341564, "lon": 36.8722616, "tags": {"amenity": "pharmacy", "healthcare": "pharmacy", "name": "Hychem Chemist", "name:it": "Hychem"}}, {"type": "node", "id": 2373149870, "lat": -1.2542578, "lon": 36.8589623, "tags": {"amenity": "hospital", "health_facility:type": "chemist_over_the_counter", "media:camera_device_number": "0", "media:video_device_number": "0", "media:video_number": "0", "medical_service:condom_distribution": "yes", "medical_service:family_planning": "yes", "medical_service:malaria": "yes", "medical_service:outpatient": "yes", "medical_service:pregnancy_test": "yes", "medical_service:sexually_transmitted_infections_management": "yes", "medical_service:vct_hiv_counselling_test": "yes", "medical_staff:general_practitioner": "1", "name": "GEOJAN CHEMIST", "opening_hours": "08:00-20:00", "operational_status": "operational", "operational_status:electricity": "always", "operator:type": "private"}},